대여소_ID,주소1,주소2,위도,경도,구,총_사용인원,평균_사용인원
ST-999,서울특별시 양천구 목동서로 280,목동아파트 8단지 상가동,0.0,0.0,양천구,,
ST-998,서울특별시 양천구 목동서로 130,목동아파트 4단지 상가동,0.0,0.0,양천구,,
ST-997,서울특별시 양천구 목동중앙로 49,목동3단지 시내버스정류장,37.53439,126.869598,양천구,3572.0,155.30434782608697
ST-996,서울특별시 양천구 남부순환로88길5-16,양강중학교앞 교차로,37.524334,126.850548,양천구,145.0,6.304347826086956
ST-995,서울특별시 양천구 중앙로 153 공중화장실,,37.510597,126.857323,양천구,208.0,9.043478260869565
ST-994,서울특별시 양천구 목동서로161,SBS방송국,37.529163,126.872749,양천구,1679.0,73.0
ST-993,서울특별시 양천구 신월로 342-1 구두수선대19,,37.521511,126.857384,양천구,1089.0,47.34782608695652
ST-992,서울특별시 마포구 마포대로 163,서울신용보증재단,37.549061,126.954178,마포구,986.0,46.95238095238095
ST-991,서울특별시 마포구 성암로330,DMC첨단산업센터,37.584503,126.885597,마포구,275.0,13.095238095238095
ST-990,서울특별시 상암동 1715-29,롯데하이마트 (상암월드컵점),37.57362,126.898048,,,
ST-99,서울특별시 광진구 능동로 10,뚝섬유원지역 1번출구 앞,37.53186,127.067192,광진구,6140.0,383.75
ST-989,서울특별시 월드컵로5길 11,합정동 주민센터,0.0,0.0,,,
ST-988,서울특별시 광진구 능동로 42,신양초교앞 교차로,37.535221,127.068398,광진구,613.0,38.3125
ST-987,서울특별시 광진구 아차산로 304,원일교회,37.538052,127.076599,광진구,1615.0,100.9375
ST-986,서울특별시 광진구 아차산로78길 7,광진유진스웰,37.550488,127.108955,광진구,34.0,2.8333333333333335
ST-985,서울특별시 광진구 능동로 지하 417,중곡역 1번출구 앞,37.565659,127.084297,광진구,673.0,42.0625
ST-984,서울특별시 광진구 자양로 131,광진구청 앞,37.539501,127.083,광진구,1269.0,79.3125
ST-983,서울특별시 광진구 능동로 313,군자역2번출구,37.557587,127.079697,광진구,1595.0,99.6875
ST-982,서울특별시 마포구 월드컵로 251,이동정비,37.564224,126.897522,마포구,,
ST-981,서울특별시 송파구 중대로 16,송파구 중대로 16,37.489872,127.11084,송파구,95.0,6.785714285714286
ST-980,서울특별시 광진구 자양동 749,,37.528454,127.078033,광진구,1361.0,85.0625
ST-98,서울특별시 광진구 능동로 76,광진구의회 앞,37.537308,127.070351,광진구,1382.0,86.375
ST-979,서울특별시 종로구 청와대로 73,종로구 세종로 1-54,37.583515,126.979668,종로구,,
ST-978,서울특별시 종로구 효자로13길 45,종로구 궁정동 98-2,37.583603,126.972549,종로구,,
ST-977,서울특별시 중구 덕수궁길 61 서울시립미술관,,37.565052,126.973404,중구,599.0,27.227272727272727
ST-976,서울특별시 관악구 신림동 1422-43,,37.484509,126.930069,관악구,2508.0,132.0
ST-975,서울특별시 강서구 마곡서1로 111-12,신방화역환승주차장,37.567284,126.818275,강서구,3255.0,162.75
ST-974,서울특별시 광진구 능동로 120,학생회관,37.541912,127.077637,광진구,1285.0,80.3125
ST-973,서울특별시 광진구 능동로 120,행정관,37.542778,127.075371,광진구,327.0,20.4375
ST-972,서울특별시 광진구 능동로 120,입학정보관,37.53989,127.073364,광진구,782.0,48.875
ST-971,서울특별시 노원구 마들로 86,한내근린공원 북측,37.623863,127.068489,노원구,890.0,46.8421052631579
ST-970,서울특별시 노원구 마들로 86,한내근린공원 남측,37.621555,127.069511,노원구,536.0,28.210526315789473
ST-97,서울특별시 광진구 광나루로 404,,37.54705,127.074333,광진구,1533.0,95.8125
ST-969,서울특별시 서초구 방배천로 54,방배경찰서 민원봉사실 앞,37.481293,126.982483,서초구,,
ST-968,서울특별시 마포구 성산동 661,,37.568977,126.894402,마포구,235.0,11.19047619047619
ST-967,서울특별시 성동구 자동차시장길 49,중랑물재생센터,37.558304,127.05806,성동구,755.0,39.73684210526316
ST-966,서울특별시 강남구 언주로 427 디오빌역삼,,37.501663,127.042976,강남구,236.0,12.421052631578947
ST-965,서울특별시 관악구 남부순환로 1830,서울대입구역1번출구,37.480869,126.953316,관악구,917.0,48.26315789473684
ST-964,서울특별시 노원구 화랑로 621 서울여자대학교,서울여대 후문,37.625317,127.088135,노원구,612.0,32.21052631578947
ST-963,서울특별시 강남구 학동로 342,강남구청역 2번출구 뒤,37.516811,127.040474,강남구,497.0,26.157894736842106
ST-962,서울특별시 강남구 언주로 721,서울본부세관(건설회관 앞),37.51759,127.035027,강남구,242.0,13.444444444444445
ST-961,서울특별시 강남구 언주로 726,두산건설 본사,37.518639,127.0354,강남구,114.0,6.705882352941177
ST-960,서울특별시 강남구 선릉로69길 19,102동 앞,37.494823,127.047905,강남구,130.0,6.842105263157895
ST-96,서울특별시 마포구 월드컵북로 502-7,상암월드컵파크 1단지,37.575665,126.894447,마포구,575.0,27.38095238095238
ST-959,서울특별시 강남구 테헤란로 지하 156,역삼빌딩,37.501545,127.038567,강남구,332.0,17.473684210526315
ST-958,서울특별시 강남구 논현로10길 29,"국립국악중,고교 정문 맞은편",37.475605,127.050377,강남구,693.0,36.473684210526315
ST-957,서울특별시 강남구 개포로 303,10동 앞,37.481384,127.053917,강남구,387.0,20.36842105263158
ST-956,서울특별시 강남구 도곡로 205,도곡1동 주민센터 교차로,37.492809,127.041389,강남구,445.0,23.42105263157895
ST-955,서울특별시 강남구 봉은사로 524,삼성역 5~6번 출구,37.509121,127.062309,강남구,,
ST-954,서울특별시 강남구 학동로 지하 346,강남구청,37.51807,127.047119,강남구,241.0,12.68421052631579
ST-953,서울특별시 강남구 영동대로 647,청담역 2번출구,37.519787,127.056763,강남구,116.0,6.105263157894737
ST-952,서울특별시 금천구 남부순환로 1428,관악농협 문성지점,37.480721,126.909325,금천구,712.0,35.6
ST-951,서울특별시 관악구 신림로 114,서울신성초등학교,37.471165,126.937019,관악구,364.0,19.157894736842106
ST-950,서울특별시 관악구 시흥대로 560,조원동 미성아파트,37.483192,126.902031,관악구,1198.0,63.05263157894737
ST-95,서울특별시 마포구 성암로 지하184,디지털미디어시티역 9번출구 앞,37.577469,126.897362,마포구,2082.0,99.14285714285714
ST-949,서울특별시 서초구 동작대로 204 청남빌딩,,37.494743,126.983063,서초구,1154.0,52.45454545454545
ST-948,서울특별시 강북구 도봉로 196,"미아역 3,4번 출구 사이",37.62608,127.026482,강북구,758.0,42.111111111111114
ST-947,서울특별시 성북구 보문로 168,성북구청,37.589329,127.016434,성북구,691.0,36.36842105263158
ST-946,서울특별시 중구 퇴계로 33,서울역 서부교차로2,37.555367,126.968643,중구,1055.0,47.95454545454545
ST-945,서울특별시 중구 만리재로 211,서울역 서부교차로,37.556965,126.96859,중구,,
ST-944,서울특별시 중구 퇴계로 212,충무로역 1번출구,37.56139,126.995354,중구,627.0,28.5
ST-943,서울특별시 중구 을지로 지하 178,을지로4가역 1번출구,37.566731,126.996605,중구,859.0,39.04545454545455
ST-942,서울특별시 중랑구 동일로 628,하나은행,37.586372,127.080071,중랑구,,
ST-941,서울특별시 종로구 평창문화로 119,일성아파트,37.608719,126.972862,종로구,,
ST-940,서울특별시 종로구 평창문화로 65,평창동 주민센터,37.606274,126.968681,종로구,,
ST-94,서울특별시 마포구 매봉산로2길 16,상암동주민센터 옆,37.57822,126.89447,마포구,1784.0,84.95238095238095
ST-939,서울특별시 종로구 진흥로 499,신영동 삼거리,37.603992,126.961945,종로구,,
ST-938,서울특별시 종로구 홍지문길 1,상명대 입구,37.600128,126.957832,종로구,,
ST-937,서울특별시 강남구 광평로 144,청소년 수련관 수영장 앞,37.483879,127.089027,강남구,244.0,12.842105263157896
ST-936,서울특별시 구로구 시흥대로 551,디지털입구 교차로,37.482883,126.901039,구로구,1937.0,92.23809523809524
ST-935,서울특별시 서초구 동작대로 138 소방빌딩,,37.488972,126.982719,서초구,1853.0,84.22727272727273
ST-934,서울특별시 관악구 신사로 7,동작관악견인차량보관소,37.484661,126.9039,관악구,,
ST-933,서울특별시 송파구 백제고분로 188,잠실포스코더샵,37.5042,127.087532,송파구,993.0,70.92857142857143
ST-932,서울특별시 동작구 현충로 지하 90,동작구 현충로 104,37.508587,126.963493,동작구,,
ST-931,서울특별시 성북구 동소문로13길 38,돈암초교,37.591694,127.012497,성북구,579.0,30.473684210526315
ST-930,서울특별시 송파구 오금로 지하 499,3번출구,37.493343,127.14473,송파구,805.0,57.5
ST-93,서울특별시 은평구 수색로 지하175,디지털미디어시티역 2번출구 앞,37.575069,126.899918,은평구,1486.0,64.6086956521739
ST-929,서울특별시 서초구 양재대로2길 8,우면동 785,37.459953,127.024742,서초구,192.0,9.142857142857142
ST-928,서울특별시 서초구 신반포로16길 30,서초구 반포동 15-2,37.501713,126.995476,서초구,687.0,31.227272727272727
ST-927,서울특별시 서초구 고무래로 34,서초구 반포동 131-1,37.502636,127.012314,서초구,1100.0,50.0
ST-926,서울특별시 서초구 헌릉로 226,서초구 내곡동 184-27,37.454407,127.064926,서초구,113.0,5.136363636363637
ST-925,서울특별시 서초구 청계산로 지하 179,서초구 신원동 270-6,37.447659,127.055016,서초구,171.0,7.7727272727272725
ST-924,서울특별시 동작구 동작대로 지하 3,동작구 사당동 1129,37.476891,126.980576,동작구,,
ST-923,서울특별시 동작구 사당로 지하 310,동작구 사당동 144-4,37.485508,126.981621,동작구,,
ST-922,서울특별시 동작구 성대로14길 46,동작구 상도동 517,37.496799,126.952873,동작구,,
ST-921,서울특별시 동작구 상도로 지하 378,동작구 상도동 514,37.496094,126.954071,동작구,,
ST-920,서울특별시 구로구 경인로40길 47,구로구 개봉동 416-99,37.494995,126.858253,구로구,1093.0,52.04761904761905
ST-92,서울특별시 마포구 매봉산로 8,상암월드컵파크 3단지 후문,37.571476,126.889687,마포구,599.0,28.523809523809526
ST-919,서울특별시 구로구 경인로 445,구로구 고척동 63-3,37.499889,126.867699,구로구,2852.0,135.8095238095238
ST-918,서울특별시 구로구 도림천로 351,구로구 구로동 72-9,37.494404,126.894447,구로구,2425.0,115.47619047619048
ST-917,서울특별시 금천구 벚꽃로 309,가산동 60-35,37.480148,126.883781,금천구,,
ST-916,서울특별시 도봉구 도봉로 683,방학동 726-92,37.665665,127.042671,도봉구,663.0,33.15
ST-915,서울특별시 노원구 동일로 지하 1662,노원구 상계동 1263,37.676941,127.055099,노원구,1035.0,54.473684210526315
ST-914,서울특별시 노원구 상계로 182,노원구 상계동 173-19,37.66,127.072968,노원구,3295.0,173.42105263157896
ST-913,서울특별시 노원구 석계로 98-2,노원구 월계동 412-1,37.622662,127.061897,노원구,1238.0,65.15789473684211
ST-912,서울특별시 중랑구 면목로 456,중랑구 면목동 282-4,37.592541,127.086739,중랑구,,
ST-911,서울특별시 성북구 월곡로 지하 107,성북구 하월곡동 37-4,37.601841,127.041718,성북구,,
ST-910,서울특별시 성북구 월곡로 지하 107,성북구 하월곡동 37-4,37.602627,127.041634,성북구,1766.0,92.94736842105263
ST-91,서울특별시 마포구 상암동 1718,,37.575657,126.890793,마포구,1112.0,52.95238095238095
ST-909,서울특별시 송파구 올림픽로4길 15 아시아선수촌아파트,,37.506779,127.07917,송파구,,
ST-908,서울특별시 송파구 위례성대로 114,송파구 방이동 75,37.513962,127.121674,송파구,1220.0,87.14285714285714
ST-907,서울특별시 송파구 법원로 101,문정동 627,37.478821,127.123512,송파구,415.0,29.642857142857142
ST-906,서울특별시 송파구 송파대로 지하 82,장지동 201-5,37.477509,127.126328,송파구,969.0,69.21428571428571
ST-905,서울특별시 송파구 법원로 101,문정동 619,37.479465,127.125328,송파구,730.0,52.142857142857146
ST-904,서울특별시 송파구 법원로 101,문정동 619,37.481537,127.122124,송파구,1494.0,106.71428571428571
ST-903,서울특별시 송파구 법원로 101,문정동 346-2,37.484531,127.120163,송파구,1132.0,80.85714285714286
ST-902,서울특별시 송파구 문정동 398-1,,37.481632,127.119164,송파구,69.0,5.3076923076923075
ST-901,서울특별시 송파구 새말로 62,송파구 문정동 398-5,37.481239,127.119797,송파구,293.0,20.928571428571427
ST-900,서울특별시 송파구 새말로 62,송파구 문정동 305-24,37.480576,127.118568,송파구,372.0,26.571428571428573
ST-90,서울특별시 마포구 월드컵북로 366,DMC홍보관,37.577995,126.891472,마포구,1040.0,49.523809523809526
ST-9,서울특별시 마포구 월드컵북로 35,449-28,37.55751,126.918503,마포구,1660.0,79.04761904761905
ST-899,서울특별시 송파구 정의로 30,송파구 문정동 396-3,37.480843,127.118011,송파구,301.0,21.5
ST-898,서울특별시 송파구 법원로 101,송파구 문정동 373,37.483761,127.117081,송파구,,
ST-897,서울특별시 송파구 동남로 203,송파구 가락동 195-1,37.49567,127.130592,송파구,295.0,21.071428571428573
ST-896,서울특별시 송파구 거마로 51,송파구 거여동 133-60,37.4977,127.146202,송파구,369.0,26.357142857142858
ST-895,서울특별시 송파구 오금로 지하 499,송파구 거여동 20-14,37.493126,127.143822,송파구,685.0,48.92857142857143
ST-894,서울특별시 송파구 올림픽로35길 16,송파구 신천동 20-50,37.520077,127.112366,송파구,1179.0,84.21428571428571
ST-893,서울특별시 송파구 마천로57길 지하 7,송파구 마천동 183-99,37.495461,127.15329,송파구,,
ST-892,서울특별시 송파구 양재대로 지하 1127,송파구 방이동 217-2,37.508968,127.125839,송파구,1275.0,91.07142857142857
ST-891,서울특별시 송파구 올림픽로 293-19,송파구 신천동 28,37.513126,127.10096,송파구,4870.0,347.85714285714283
ST-890,서울특별시 서초구 매헌로 16,양재동 217-3,37.463322,127.036041,서초구,1082.0,49.18181818181818
ST-89,서울특별시 마포구 성산동 421-10,,37.57048,126.898895,마포구,1526.0,72.66666666666667
ST-889,서울특별시 서초구 태봉로 131,서초구 우면동 23-14,37.4692,127.029007,서초구,509.0,23.136363636363637
ST-888,서울특별시 관악구 인헌3가길 8,봉천동 1642-4,37.473881,126.967361,관악구,,
ST-887,서울특별시 관악구 남부순환로 지하 1928,봉천동 1693-39,37.477028,126.963394,관악구,543.0,28.57894736842105
ST-886,서울특별시 관악구 신림로 67,관악구 신림동 226-2,37.470696,126.9422,관악구,258.0,13.578947368421053
ST-885,서울특별시 관악구 신림로 137,관악구 신림동 289-3,37.472294,126.933411,관악구,,
ST-884,서울특별시 관악구 관악로 217,동진빌딩 앞,37.484257,126.954697,관악구,539.0,28.36842105263158
ST-883,서울특별시 관악구 남부순환로 1369,관악구 신림동 1674-8,37.479916,126.90284,관악구,905.0,47.63157894736842
ST-882,서울특별시 관악구 봉천동 962,,37.486202,126.935814,관악구,1919.0,101.0
ST-881,서울특별시 서초구 양재대로2길 74,우면동 754,37.455799,127.016289,서초구,473.0,21.5
ST-880,서울특별시 서초구 양재대로2길 74,우면동 754,37.456234,127.019348,서초구,185.0,8.409090909090908
ST-88,서울특별시 마포구 상암동 1691,,37.577393,126.887474,마포구,204.0,9.714285714285714
ST-879,서울특별시 서초구 바우뫼로 43,서초구 우면동 68-3,37.471928,127.02684,서초구,442.0,20.09090909090909
ST-878,서울특별시 동작구 사당로 지하 218,동작구 사당동 712-8,37.48447,126.971428,동작구,,
ST-877,서울특별시 동작구 노량진로 191,동작구 노량진동 152-7,37.513359,126.948059,동작구,,
ST-876,서울특별시 구로구 오리로 지하 1154,구로구 오류동 174-6,37.486385,126.839211,구로구,700.0,33.333333333333336
ST-875,서울특별시 구로구 오리로 1102-10,구로구 천왕동 257-82,37.482105,126.845726,구로구,979.0,46.61904761904762
ST-874,서울특별시 구로구 천왕로 29 천왕 이펜하우스 4단지,,37.480705,126.838959,구로구,180.0,8.571428571428571
ST-873,서울특별시 구로구 구로중앙로 174,구로동 603-26,37.503117,126.880386,구로구,2146.0,102.19047619047619
ST-872,서울특별시 구로구 경인로3길 지하 64,구로구 온수동 119-4,37.49279,126.824524,구로구,189.0,9.0
ST-871,서울특별시 구로구 서해안로 2340-10,구로구 오류동 135-2,37.493671,126.843704,구로구,695.0,33.095238095238095
ST-870,서울특별시 구로구 경인로40길 47,구로구 개봉동 202-42,37.494282,126.859215,구로구,504.0,24.0
ST-87,서울특별시 마포구 월드컵로 240,홈플러스 월드컵경기장점,37.56842,126.899429,마포구,2042.0,97.23809523809524
ST-869,서울특별시 노원구 동일로 지하 1662,노원구 상계동 1132-9,37.67625,127.055504,노원구,834.0,43.89473684210526
ST-868,서울특별시 노원구 동일로 1652,노원구 상계동 1118-9,37.673618,127.055252,노원구,485.0,25.526315789473685
ST-867,서울특별시 노원구 노원로22길 1,노원구 중계1동 360-18,37.648209,127.070221,노원구,878.0,46.21052631578947
ST-866,서울특별시 노원구 월계로 378,노원구 월계동 321-4,37.631622,127.061615,노원구,835.0,43.94736842105263
ST-865,서울특별시 강북구 삼양로155길 9-7,우이동 5-10,37.661648,127.013344,강북구,,
ST-864,서울특별시 도봉구 삼양로 574,우이동 100-13,37.654472,127.012756,도봉구,,
ST-863,서울특별시 강북구 도봉로89길 13,수유동 192-59,37.639671,127.0252,강북구,176.0,9.777777777777779
ST-862,서울특별시 강북구 한천로150길 67,수유동 694-2,37.644737,127.026566,강북구,1267.0,70.38888888888889
ST-861,서울특별시 강북구 오현로31길 85-7,번동 656-2,37.631123,127.036034,강북구,,
ST-860,서울특별시 강북구 오현로25마길 27,번동 230,37.633717,127.035515,강북구,259.0,14.38888888888889
ST-86,서울특별시 마포구 월드컵북로 396,누리꿈스퀘어 옆,37.579399,126.88916,마포구,1415.0,67.38095238095238
ST-859,서울특별시 강북구 한천로 935,번동 386-17,37.634377,127.035751,강북구,291.0,16.166666666666668
ST-858,서울특별시 강북구 덕릉로40길 48,번동 619-53,0.0,0.0,강북구,,
ST-857,서울특별시 중랑구 동일로 지하 797,중랑구 중화동 50-3,37.602077,127.079582,중랑구,,
ST-856,서울특별시 중랑구 봉화산로 194,중랑구 신내동 561,37.606499,127.095451,중랑구,,
ST-855,서울특별시 중랑구 봉화산로 179,중랑구 신내동 662-1,37.606152,127.092598,중랑구,,
ST-854,서울특별시 중랑구 동일로 778,동일로 778,37.599957,127.080002,중랑구,,
ST-853,서울특별시 중랑구 숙선옹주로 66,중랑구 묵동 20-3,37.616024,127.085968,중랑구,,
ST-852,서울특별시 중랑구 용마산로 지하 227,중랑구 면목동 1381,37.574299,127.086914,중랑구,,
ST-851,서울특별시 중랑구 면목로 460,중랑구 상봉동 395-6,37.593231,127.086914,중랑구,,
ST-850,서울특별시 중랑구 면목로 480,중랑구 상봉동 160-22,37.595219,127.085999,중랑구,,
ST-85,서울특별시 마포구 월드컵북로47길 10,1,37.566246,126.896179,마포구,764.0,36.38095238095238
ST-849,서울특별시 중랑구 면목로 325,,37.58099,127.088242,중랑구,,
ST-848,서울특별시 중랑구 동일로 지하 901,중랑구 묵동 189-5,37.610722,127.077477,중랑구,,
ST-847,서울특별시 중랑구 공릉로 12,중랑구 묵동 189-4,37.611511,127.077888,중랑구,,
ST-846,서울특별시 성북구 솔샘로17길 8,정릉동 746-2,37.612774,127.006531,성북구,,
ST-845,서울특별시 성북구 인촌로 95,성북구 안암동5가 101-144,37.586273,127.029877,성북구,,
ST-844,서울특별시 성북구 인촌로 16,성북구 안암동2가 140-1,0.0,0.0,성북구,,
ST-843,서울특별시 성북구 동소문로22길 4,성북구 동선동1가 101-5,37.592522,127.017677,성북구,,
ST-842,서울특별시 성북구 동소문로 2,성북구 동소문동2가 2-3,37.588448,127.006706,성북구,1092.0,57.473684210526315
ST-841,서울특별시 성북구 성북로 62,성북구 성북동 142-1,37.592758,127.002357,성북구,,
ST-840,서울특별시 송파구 석촌호수로12길 3-5,송파구 잠실동 31,37.514088,127.09903,송파구,1453.0,103.78571428571429
ST-84,서울특별시 마포구 월드컵북로 424,LG CNS앞,37.580811,126.88665,마포구,608.0,28.952380952380953
ST-839,서울특별시 송파구 송파대로 지하 354,송파구 가락동 459-4,37.499413,127.112869,송파구,653.0,46.642857142857146
ST-838,서울특별시 송파구 송파대로 지하 257,송파구 가락동 214-3,37.493179,127.118546,송파구,892.0,63.714285714285715
ST-837,서울특별시 강서구 강서로 지하 54,강서구 화곡동 662-5,37.532551,126.846321,강서구,,
ST-836,서울특별시 강서구 곰달래로37길 13,강서구곰달래로37길 13,37.53178,126.854485,강서구,,
ST-835,서울특별시 강서구 강서로 304,강서구 내발산동 724-42,37.552914,126.836571,강서구,3464.0,173.2
ST-834,서울특별시 강서구 공항대로 329,강서구 등촌동 675-7,37.558197,126.844261,강서구,3013.0,150.65
ST-833,서울특별시 강서구 공항대로59길 8,강서구 등촌동 666-90,37.551666,126.86409,강서구,,
ST-832,서울특별시 강서구 방화대로47가길 22,강서구 방화동 830-15,37.577213,126.813553,강서구,,
ST-831,서울특별시 강서구 방화동 829-11,,37.577106,126.811996,강서구,2328.0,116.4
ST-830,서울특별시 강동구 양재대로84길 63,,37.524254,127.135284,강동구,418.0,19.0
ST-83,서울특별시 마포구 상암산로1길 71,마포구 육아보육정보센터 앞,37.580631,126.883675,마포구,876.0,41.714285714285715
ST-829,서울특별시 강서구 화곡로 지하 168,화곡역 6번출구,37.541412,126.840225,강서구,1202.0,60.1
ST-828,서울특별시 강서구 방화대로 241 공항중학교,,37.562202,126.816246,강서구,1076.0,53.8
ST-827,서울특별시 성북구 안암로 69,안암로터리 버스정류장,37.582592,127.028976,성북구,2872.0,151.1578947368421
ST-826,서울특별시 성북구 성북로 132-1,만해공원,37.594402,126.99231,성북구,208.0,11.555555555555555
ST-825,서울특별시 성북구 동소문로 1,한성대입구역6번출구 뒤,37.588764,127.00631,성북구,564.0,29.68421052631579
ST-824,서울특별시 강서구 양천로24길 13 마곡센트레빌,,37.572563,126.816422,강서구,2584.0,129.2
ST-823,서울특별시 강남구 개포로 623,대청역1번출구 뒤,37.494007,127.079514,강남구,929.0,48.89473684210526
ST-822,서울특별시 강남구 일원로 127,"일원역 4,5번 출구사이",37.483311,127.084938,강남구,455.0,23.94736842105263
ST-821,서울특별시 강남구 논현로 82,삼호물산버스정류장(23370) 옆,37.477509,127.045174,강남구,1569.0,82.57894736842105
ST-820,서울특별시 강남구 언주로 107,현대아파트 정문 앞,37.483261,127.0523,강남구,412.0,21.68421052631579
ST-82,서울특별시 마포구 월드컵로 212 마포구청,,37.565746,126.901863,마포구,1469.0,69.95238095238095
ST-819,서울특별시 강남구 선릉로 지하 228,강남세브란스교차로  래미안그레이튼 104동 앞,37.494236,127.047462,강남구,258.0,13.578947368421053
ST-818,서울특별시 강남구 남부순환로 2748,3호선 매봉역 3번출구앞,37.486767,127.046761,강남구,1286.0,67.6842105263158
ST-817,서울특별시 강남구 선릉로 지하 228,8.삼호@ 2동 ( 간선도로),37.493759,127.045898,강남구,127.0,6.684210526315789
ST-816,서울특별시 강남구 강남대로 240,양재역 3번출구 주변,37.485157,127.034073,강남구,670.0,35.26315789473684
ST-815,서울특별시 강남구 역삼동 708-7,,37.504105,127.049034,강남구,982.0,51.68421052631579
ST-814,서울특별시 강남구 언주로 337,동영문화센터앞,37.498051,127.044601,강남구,335.0,17.63157894736842
ST-813,서울특별시 강남구 도곡로 183,스타벅스 앞,37.492199,127.039459,강남구,324.0,17.05263157894737
ST-812,서울특별시 강남구 테헤란로 지하 156,역삼역 지하보도 2번출구,37.502357,127.04319,강남구,276.0,14.526315789473685
ST-811,서울특별시 강남구 역삼동 801-7,,37.503212,127.042732,강남구,357.0,18.789473684210527
ST-810,서울특별시 강남구 강남대로 308,뱅뱅사거리 랜드마크타워 앞,37.490551,127.031464,강남구,747.0,39.31578947368421
ST-81,서울특별시 마포구 월드컵로42길 22,,37.581112,126.880875,마포구,602.0,28.666666666666668
ST-809,서울특별시 강남구 삼성로 350,대치동 삼성로,37.502396,127.0588,강남구,444.0,23.36842105263158
ST-808,서울특별시 강남구 도곡로 447,대치동 버거킹대치점,37.49865,127.059319,강남구,663.0,34.89473684210526
ST-807,서울특별시 강남구 도곡로 540,천주교 대치 2동 교회 옆,37.500439,127.066223,강남구,583.0,30.68421052631579
ST-806,서울특별시 강남구 영동대로 308,주식회사 오뚜기 정문 앞,37.502213,127.067207,강남구,312.0,16.42105263157895
ST-805,서울특별시 강남구 테헤란로 534,삼성역 3번 출구,37.508091,127.063103,강남구,,
ST-804,서울특별시 강남구 남부순환로 지하 3104,학여울역 사거리,37.496117,127.069443,강남구,269.0,14.157894736842104
ST-803,서울특별시 강남구 남부순환로 2907 대치지구대,,37.491913,127.057091,강남구,468.0,24.63157894736842
ST-802,서울특별시 강남구 테헤란로 435,포스코4거리 서측(수협 삼성동 지점),37.506607,127.05468,강남구,409.0,21.526315789473685
ST-801,서울특별시 강남구 봉은사로 531,삼성중앙역4번출구(문화센터더 라빌),37.513577,127.055031,강남구,113.0,5.947368421052632
ST-800,서울특별시 강남구 영동대로 502,삼성역 7번출구,37.509575,127.063408,강남구,,
ST-80,서울특별시 마포구 월드컵북로60길 13,DMC빌 앞,37.582657,126.885788,마포구,470.0,22.38095238095238
ST-8,서울특별시 마포구 독막로 4,381-1,37.548645,126.912827,마포구,1398.0,66.57142857142857
ST-799,서울특별시 강남구 봉은사로 지하 601,봉은사역 5번출구 옆,37.514248,127.061119,강남구,377.0,19.842105263157894
ST-798,서울특별시 강남구 삼성동 111-4,,37.521015,127.06015,강남구,116.0,14.5
ST-797,서울특별시 강남구 테헤란로 501,포스코사거리(기업은행),37.507233,127.056854,강남구,1303.0,68.57894736842105
ST-796,서울특별시 강남구 도산대로 539,금원빌딩,37.525116,127.052467,강남구,343.0,18.05263157894737
ST-795,서울특별시 강남구 영동대로 703,청담역 13번 출구 앞,37.52058,127.056328,강남구,328.0,17.263157894736842
ST-794,서울특별시 강남구 학동로 지하 508,청담동 맥도날드 옆,37.523613,127.040176,강남구,241.0,12.68421052631579
ST-793,서울특별시 강남구 압구정로 311,압구정파출소 앞,37.529301,127.035599,강남구,704.0,37.05263157894737
ST-792,서울특별시 강남구 압구정로 339-2 가로판매,,37.528381,127.039017,강남구,307.0,16.157894736842106
ST-791,서울특별시 강남구 압구정로 지하 172,압구정역 2번 출구 옆,37.527123,127.028717,강남구,1059.0,55.73684210526316
ST-790,서울특별시 강남구 언주로 734,MCM 본사 직영점 앞,37.520641,127.034508,강남구,185.0,10.277777777777779
ST-79,서울특별시 마포구 월드컵북로60길 17,우리금융상암센터 교차로,37.583481,126.886696,마포구,,
ST-789,서울특별시 강남구 언주로 619 대현그린타워,,37.511627,127.035652,강남구,176.0,9.263157894736842
ST-788,서울특별시 강남구 학동로 102 논현역,,37.511372,127.021461,강남구,942.0,49.578947368421055
ST-787,서울특별시 강남구 봉은사로 지하 102,교보타워 버스정류장,37.505581,127.024277,강남구,807.0,42.473684210526315
ST-786,서울특별시 강남구 학동로 지하 508,학동로 래미안 아파트 앞,37.517773,127.043022,강남구,254.0,13.368421052631579
ST-785,서울특별시 강남구 자곡로 101,래미안강남힐즈 앞,37.472919,127.095886,강남구,,
ST-784,서울특별시 강남구 영동대로112길 66,삼성도로공원,37.515888,127.0662,강남구,477.0,25.105263157894736
ST-783,서울특별시 강남구 학동로 443,강남구 청담동 77-76 (학동로 443 앞 도로),37.518902,127.049385,강남구,282.0,14.842105263157896
ST-782,서울특별시 강남구 영동대로 101,대모산입구역 2번출구 앞,37.492077,127.071976,강남구,347.0,18.263157894736842
ST-781,서울특별시 서초구 바우뫼로12길 70,더케이호텔 입구(양재2),37.467506,127.034477,서초구,744.0,33.81818181818182
ST-780,서울특별시 서초구 잠원로4길 지하 46,"잠원역 3,4번 출구사이",37.512989,127.011177,서초구,1098.0,49.90909090909091
ST-78,서울특별시 마포구 가양대로 189,부엉이근린공원 앞,37.58559,126.884727,마포구,400.0,25.0
ST-779,서울특별시 강남구 헌릉로590길 10,리엔파크 2단지 앞,37.465061,127.101196,강남구,328.0,17.263157894736842
ST-778,서울특별시 강남구 헌릉로 623,세곡사거리 대왕파출소 앞,37.465317,127.107727,강남구,,
ST-777,서울특별시 강남구 압구정로 134,현대고등학교 건너편,37.524071,127.02179,강남구,1009.0,53.10526315789474
ST-776,서울특별시 서초구 잠원로 145-9,,37.516197,127.009209,서초구,,
ST-775,서울특별시 강남구 논현로2길 22,개포동 1277,37.471539,127.050591,강남구,316.0,16.63157894736842
ST-774,서울특별시 서초구 청계산로 10,양재동 238-1,37.462688,127.046112,서초구,79.0,3.590909090909091
ST-773,서울특별시 서초구 강남대로 27,양재동 238,37.46769,127.04036,서초구,227.0,10.318181818181818
ST-772,서울특별시 서초구 양재동 237-2,,37.470165,127.03862,서초구,1704.0,77.45454545454545
ST-771,서울특별시 서초구 태봉로2길 24,우면동 718,37.462639,127.026619,서초구,840.0,38.18181818181818
ST-770,서울특별시 서초구 바우뫼로18길 14,서초구 양재동 127-1,37.473614,127.03051,서초구,569.0,25.863636363636363
ST-77,서울특별시 마포구 상암동 1748-1,,37.582928,126.879837,마포구,515.0,24.523809523809526
ST-769,서울특별시 서초구 바우뫼로1길 35,서초구 양재동 20-40,37.477852,127.03891,서초구,1043.0,47.40909090909091
ST-768,서울특별시 서초구 강남대로 193,서초구 양재동 105-4,37.481491,127.036728,서초구,671.0,30.5
ST-767,서울특별시 서초구 남부순환로 지하 2585,서초구 양재동 105-4,37.48399,127.03418,서초구,574.0,26.09090909090909
ST-766,서울특별시 강남구 논현로 201,강남구 도곡동 207,37.485378,127.041702,강남구,311.0,16.36842105263158
ST-765,서울특별시 서초구 서초대로 지하 294,서초구 서초동 1748-6,37.494217,127.013786,서초구,513.0,23.318181818181817
ST-764,서울특별시 서초구 서초중앙로 지하 31,서초구 서초동 1748-38,37.484558,127.01487,서초구,634.0,28.818181818181817
ST-763,서울특별시 서초구 사평대로 73,서초구 방배동 1037-2,37.482159,127.002701,서초구,182.0,8.272727272727273
ST-762,서울특별시 서초구 효령로36길 22,서초동 1418,37.491112,127.022957,서초구,502.0,22.818181818181817
ST-761,서울특별시 서초구 서초대로 405,1377,37.496914,127.024963,서초구,1271.0,57.77272727272727
ST-760,서울특별시 동작구 사당로 지하 310,서초구 방배동 2298,37.485828,126.982628,동작구,,
ST-76,서울특별시 마포구 월드컵북로 502-36,상암월드컵파크 10단지 앞,37.586189,126.881615,마포구,804.0,38.285714285714285
ST-759,서울특별시 서초구 방배동 3151,,37.48735,126.984924,서초구,390.0,17.727272727272727
ST-758,서울특별시 서초구 방배동 388-5,,37.489769,126.986763,서초구,1046.0,47.54545454545455
ST-757,서울특별시 서초구 서초대로 지하 103,서초구 방배동 874-16,37.489052,126.992523,서초구,623.0,28.318181818181817
ST-756,서울특별시 서초구 방배로1길 9,서초구 방배동 1034-2,37.475182,127.001389,서초구,152.0,7.238095238095238
ST-755,서울특별시 서초구 방배로9길 23,서초구 방배동 504-4,37.473759,126.995247,서초구,120.0,5.454545454545454
ST-754,서울특별시 서초구 남부순환로 2183,서초구 방배동 2577,37.47261,126.983009,서초구,265.0,12.045454545454545
ST-753,서울특별시 동작구 동작대로 지하 3,서초구 방배동 495-3,37.478069,126.982033,동작구,,
ST-752,서울특별시 서초구 방배로 110,서초구 방배동 905-34,37.485611,126.994682,서초구,753.0,34.22727272727273
ST-751,서울특별시 서초구 신반포로 10,서초구 반포동 752,37.500614,126.98616,서초구,,
ST-750,서울특별시 서초구 신반포로 지하 188,서초구 잠원동 101,37.506199,127.003944,서초구,2587.0,117.5909090909091
ST-749,서울특별시 서초구 나루터로4길 60,서초구 잠원동 78,37.513046,127.005959,서초구,1916.0,87.0909090909091
ST-748,서울특별시 서초구 신반포로 지하 105,서초구 반포동 128-1,37.504116,126.99749,서초구,748.0,34.0
ST-747,서울특별시 서초구 신반포로 지하 188,서초구 반포동 117-4,37.502232,127.002258,서초구,828.0,37.63636363636363
ST-746,서울특별시 서초구 고무래로 89 반포써밋,,37.500652,127.018616,서초구,583.0,26.5
ST-745,서울특별시 서초구 사평대로 지하 285,서초구 반포동 128-7,37.505096,127.013107,서초구,211.0,9.590909090909092
ST-744,서울특별시 서초구 헌릉로8길 42,서초구 내곡동 123-1,37.454357,127.062103,서초구,895.0,40.68181818181818
ST-743,서울특별시 서초구 청계산로9길 76,서초구 신원동 411-69,37.453751,127.05938,서초구,534.0,24.272727272727273
ST-742,서울특별시 서초구 청계산로 지하 179,서초구 신원동 276-1,37.448936,127.054375,서초구,1306.0,59.36363636363637
ST-741,서울특별시 서초구 본마을2길 2,서초구 신원동 485-13,37.453281,127.051483,서초구,,
ST-740,서울특별시 송파구 오금로 지하 321,송파구 오금동 44-2,37.502594,127.127647,송파구,534.0,38.142857142857146
ST-74,서울특별시 마포구 월드컵로 251,운영센터,37.566406,126.893669,마포구,4.0,1.3333333333333333
ST-739,서울특별시 송파구 석촌호수로 298,송파구 신천동 33,37.512104,127.10778,송파구,,
ST-738,서울특별시 송파구 성내천로 233,송파구 마천동 200-58,37.499756,127.152504,송파구,336.0,24.0
ST-737,서울특별시 송파구 송파대로28길 24,송파구 가락동 100-2,37.493729,127.120621,송파구,634.0,45.285714285714285
ST-736,서울특별시 노원구 한글비석로 235,노원구 중계동 391,37.649021,127.076408,노원구,1568.0,82.52631578947368
ST-735,서울특별시 노원구 동일로 지하 1074,노원구 공릉동 385-4,37.626614,127.072754,노원구,2609.0,137.31578947368422
ST-734,서울특별시 도봉구 마들로 891,도봉동 22-26,37.688274,127.049065,도봉구,,
ST-733,서울특별시 동작구 여의대방로16길 53,신대방동 460-37,37.494499,126.916527,동작구,,
ST-732,서울특별시 동작구 사당동 1157-2,,37.489079,126.973564,동작구,,
ST-731,서울특별시 동작구 사당로 169,동작구 사당동 211-2,37.486835,126.968048,동작구,,
ST-730,서울특별시 동작구 동작대로 129,동작구 사당동 708-559,37.48888,126.98201,동작구,,
ST-73,서울특별시 영등포구 여의동로 지하343,여의나루역 1번출구 앞,37.527157,126.9319,영등포구,5137.0,223.34782608695653
ST-729,서울특별시 동작구 동작대로 지하 3,동작구 사당동 1112,37.481491,126.981583,동작구,,
ST-728,서울특별시 동작구 상도로 지하 76,동작구 상도동 329-2,37.499855,126.929565,동작구,,
ST-727,서울특별시 동작구 시흥대로 634,동작구 신대방동 699,37.488361,126.906227,동작구,,
ST-726,서울특별시 동작구 상도로 지하 2,동작구 대방동 466-51,37.500076,126.921082,동작구,,
ST-725,서울특별시 관악구 은천로 69,관악구 봉천동 982-2,37.486359,126.942925,관악구,363.0,19.105263157894736
ST-724,서울특별시 관악구 신림로 270,관악구 신림동 808-263,37.478428,126.931862,관악구,1292.0,68.0
ST-723,서울특별시 관악구 남부순환로 1675,관악구 봉천동 979-9,37.484901,126.936531,관악구,466.0,24.526315789473685
ST-722,서울특별시 관악구 낙성대로 70,관악구 봉천동 274-4,37.471989,126.958427,관악구,81.0,4.5
ST-721,서울특별시 관악구 낙성대로 101,관악구 봉천동 244-1,37.469055,126.958145,관악구,225.0,11.842105263157896
ST-720,서울특별시 관악구 관악로 153,관악구 봉천동 979-3,37.479164,126.952583,관악구,381.0,20.05263157894737
ST-72,서울특별시 영등포구 의사당대로 지하166,샛강역 1번출구 앞,37.517765,126.928413,영등포구,1764.0,76.69565217391305
ST-719,서울특별시 관악구 남부순환로 1889,관악구 봉천동 1693-38,37.478058,126.960495,관악구,462.0,24.31578947368421
ST-718,서울특별시 관악구 은천로 107,관악구 봉천동 464-7,37.486774,126.947815,관악구,,
ST-717,서울특별시 관악구 남부순환로 지하 1822,관악구 봉천동 979-2,37.481705,126.950829,관악구,427.0,22.473684210526315
ST-716,서울특별시 관악구 남부순환로 1427,관악구 신림동 564,37.481129,126.909431,관악구,,
ST-715,서울특별시 관악구 남부순환로 지하 1822,관악구 봉천동 979-2,37.481339,126.950645,관악구,658.0,34.63157894736842
ST-714,서울특별시 관악구 봉천로 375,관악구 봉천동 975-18,37.483341,126.943199,관악구,889.0,46.78947368421053
ST-713,서울특별시 관악구 신림로 40,관악구 신림동 808-133,37.475472,126.936455,관악구,,
ST-712,서울특별시 관악구 남현동 1060-12,,37.476089,126.981331,관악구,851.0,44.78947368421053
ST-711,서울특별시 관악구 난곡로 317,신림동 538,37.4818,126.915237,관악구,,
ST-710,서울특별시 관악구 남부순환로163가길 20,신림동 483-14,37.485142,126.920563,관악구,,
ST-71,서울특별시 영등포구 의사당대로 166 샛강역,,37.517586,126.929619,영등포구,1636.0,71.1304347826087
ST-709,서울특별시 관악구 문성로 115,관악구 신림동 산 197-60,37.477776,126.916756,관악구,435.0,22.894736842105264
ST-708,서울특별시 관악구 남부순환로 지하 1614,관악구 신림동 1467-10,37.484409,126.928909,관악구,,
ST-707,서울특별시 관악구 난곡로 99,관악구 신림동 666-30,37.464886,126.919479,관악구,338.0,17.789473684210527
ST-706,서울특별시 관악구 보라매로 4,관악구 봉천동 985,37.489819,126.927727,관악구,,
ST-705,서울특별시 관악구 난곡로 210,관악구 신림동 614-25,37.473728,126.918404,관악구,897.0,47.21052631578947
ST-704,서울특별시 관악구 난곡로 295,관악구 신림동 1475-64,37.480251,126.914604,관악구,698.0,36.73684210526316
ST-703,서울특별시 관악구 관천로27길 2,신사동 우방아파트,37.489178,126.919273,관악구,936.0,49.26315789473684
ST-702,서울특별시 관악구 신림동 1467-13,,37.484085,126.926888,관악구,4222.0,222.21052631578948
ST-701,서울특별시 동작구 장승배기로 26,상도동 201-38,37.500881,126.94175,동작구,,
ST-700,서울특별시 동작구 만양로 84,노량진동 118-14,37.510548,126.944847,동작구,,
ST-70,서울특별시 영등포구 국제금융로 86,롯데캐슬 앞,37.520088,126.932365,영등포구,1926.0,83.73913043478261
ST-7,서울특별시 마포구 양화로 48,394-95,37.550007,126.914825,마포구,632.0,30.095238095238095
ST-699,서울특별시 동작구 노량진로 지하 130,노량진동 60-11,37.513248,126.939972,동작구,,
ST-698,서울특별시 동작구 흑석로 102,흑석동 86-181,37.50634,126.961037,동작구,,
ST-697,서울특별시 동작구 현충로 151,동작구 흑석동 28-3,37.506359,126.969078,동작구,,
ST-696,서울특별시 동작구 현충로 지하 220,동작구 동작동 203-5,37.503181,126.976089,동작구,,
ST-695,서울특별시 동작구 현충로 지하 220,동작구 동작동 326,37.503189,126.97715,동작구,,
ST-694,서울특별시 동작구 동작대로39길 22 이수힐스테이트,,37.494663,126.982445,동작구,,
ST-693,서울특별시 동작구 흑석로 47,동작구 흑석동 221-1,37.507042,126.959152,동작구,,
ST-692,서울특별시 동작구 현충로 지하 90,동작구 흑석동 2-28,37.50938,126.963615,동작구,,
ST-691,서울특별시 동작구 상도로 지하 272,동작구 상도1동 776,37.502178,126.948204,동작구,,
ST-690,서울특별시 동작구 상도로 지하 188,동작구 상도동 26-20,37.504498,126.938988,동작구,,
ST-69,서울특별시 영등포구 국제금융로 106 행진빌딩,,37.519131,126.933373,영등포구,1098.0,47.73913043478261
ST-689,서울특별시 동작구 보라매로5길 44,동작구 신대방동 395-61,37.492588,126.92524,동작구,,
ST-688,서울특별시 동작구 상도로 지하 76,동작구 대방동 406-10,37.499645,126.927094,동작구,,
ST-687,서울특별시 동작구 상도로 지하 188,동작구 노량진동 311-4,37.505852,126.939362,동작구,,
ST-686,서울특별시 동작구 여의대방로44길 20,동작구 대방동 503-2,37.509369,126.92807,동작구,,
ST-685,서울특별시 동작구 노량진로 74,동작구 대방동 47-3,37.512939,126.934242,동작구,,
ST-684,서울특별시 동작구 노량진로 지하 130,동작구 노량진동 67-2,37.51395,126.942978,동작구,,
ST-683,서울특별시 동작구 노량진로 지하 238,동작구 본동 344-10,37.512844,126.952469,동작구,,
ST-682,서울특별시 구로구 경인로 621,신도림동 413-2,37.506977,126.885773,구로구,,
ST-681,서울특별시 구로구 오류로8바길 34,구로구 오류동 33-145,37.497551,126.847252,구로구,,
ST-680,서울특별시 구로구 경인로20길 13,구로구 오류동 65-6,37.495029,126.843613,구로구,,
ST-68,서울특별시 영등포구 63로 45 여의도시범아파트,,37.51902,126.93689,영등포구,1535.0,66.73913043478261
ST-679,서울특별시 구로구 개봉로3길 87,구로구 개봉동 375-4,37.486061,126.852013,구로구,715.0,34.04761904761905
ST-678,서울특별시 구로구 남부순환로 775 개봉푸르지오,,37.501705,126.847282,구로구,1424.0,67.80952380952381
ST-677,서울특별시 구로구 경인로 293,구로구 개봉동 139-4,37.497684,126.853729,구로구,745.0,35.476190476190474
ST-676,서울특별시 구로구 고척로45길 1,,37.503815,126.851959,구로구,861.0,41.0
ST-675,서울특별시 구로구 경인로 430,구로구 고척동 63-5,37.49947,126.868401,구로구,1209.0,57.57142857142857
ST-674,서울특별시 구로구 남부순환로 1299,구로구 가리봉동 127-30,37.478741,126.895096,구로구,838.0,39.904761904761905
ST-673,서울특별시 구로구 새말로 73,구로구 구로동 50,37.504379,126.888298,구로구,1097.0,52.23809523809524
ST-672,서울특별시 구로구 새말로18길 39,구로구 구로동 50,37.4991,126.89135,구로구,,
ST-671,서울특별시 구로구 구로중앙로 48,구로구 구로동 65,37.494141,126.889984,구로구,601.0,28.61904761904762
ST-670,서울특별시 구로구 구로중앙로 13,구로구 구로동 136-14,37.491032,126.892151,구로구,,
ST-67,서울특별시 영등포구 여의대방로 439,여의도초등학교 앞,37.522675,126.93779,영등포구,1398.0,60.78260869565217
ST-669,서울특별시 구로구 디지털로31길 120,구로구 구로동 772,37.4888,126.890663,구로구,1911.0,91.0
ST-668,서울특별시 구로구 시흥대로 577-2,구로구 구로동 1119,37.48494,126.901321,구로구,3888.0,185.14285714285714
ST-667,서울특별시 구로구 구로동로42길 43,구로구 구로동 454-92,37.497505,126.884377,구로구,313.0,14.904761904761905
ST-666,서울특별시 구로구 구일로 110,구로구 구로동 642-107,37.495285,126.872162,구로구,2262.0,107.71428571428571
ST-665,서울특별시 구로구 구일로2길 59,구로구 구로동 685-524,37.489632,126.876259,구로구,1266.0,60.285714285714285
ST-664,서울특별시 구로구 경인로 688,구로구 신도림동 348-1,37.50972,126.890099,구로구,4320.0,205.71428571428572
ST-663,서울특별시 구로구 경인로67길 160,구로구 신도림동 323-16,37.51424,126.882874,구로구,2188.0,104.19047619047619
ST-662,서울특별시 구로구 신도림로 40,구로구 신도림동 397-32,37.507332,126.87973,구로구,1773.0,84.42857142857143
ST-661,서울특별시 금천구 독산로54길 114,독산동 375-2,37.467403,126.908142,금천구,144.0,7.2
ST-660,서울특별시 금천구 독산동 727-1,,37.456726,126.893066,금천구,1134.0,56.7
ST-66,서울특별시 영등포구 국제금융로8길 2,NH농협은행 앞,37.522079,126.930367,영등포구,2852.0,124.0
ST-659,서울특별시 도봉구 도봉로 지하 486-1,쌍문동 83-7,37.647991,127.034111,도봉구,,
ST-658,서울특별시 도봉구 해등로 150,창동 723-10,37.65683,127.039848,도봉구,1335.0,66.75
ST-657,서울특별시 도봉구 도봉로 955,도봉동 637-1,37.68972,127.045197,도봉구,210.0,10.5
ST-656,서울특별시 도봉구 도봉로 지하 486-1,창동 703-6,37.647381,127.034218,도봉구,,
ST-655,서울특별시 성북구 종암로3길 37-2,성북구 종암동 12-33,37.593288,127.036667,성북구,1244.0,65.47368421052632
ST-654,서울특별시 강북구 삼양로 439,SK telecom(수유직영점),37.643085,127.016167,강북구,473.0,26.27777777777778
ST-653,서울특별시 강북구 삼각산로22길 2-4,우이초등학교 앞 사거리공원,37.640095,127.016708,강북구,,
ST-652,서울특별시 강북구 수유동 386-1,,37.639793,127.016853,강북구,426.0,23.666666666666668
ST-651,서울특별시 강북구 삼양로 474,수유동 317-3,37.645451,127.015617,강북구,490.0,27.22222222222222
ST-650,서울특별시 강북구 노해로 50,수유동 140,37.639862,127.022789,강북구,933.0,51.833333333333336
ST-65,서울특별시 영등포구 국제금융로7길 27,삼부아파트 1동 앞,37.523491,126.932899,영등포구,,
ST-649,서울특별시 강북구 도봉로 357,수유동 317-3,37.644577,127.01593,강북구,,
ST-648,서울특별시 강북구 솔샘로 284,송천동 주민센터,37.618286,127.024048,강북구,297.0,16.5
ST-647,서울특별시 강북구 솔매로49길 14,미아동 195-1,37.62714,127.026695,강북구,258.0,14.333333333333334
ST-646,서울특별시 강북구 한천로 1009,강북구청 사거리 버스정류소,37.638805,127.028358,강북구,615.0,34.166666666666664
ST-645,서울특별시 강북구 삼각산로 85,강북문화예술회관,37.640327,127.013359,강북구,797.0,44.27777777777778
ST-644,서울특별시 강북구 삼양로 234,다이소 삼양시장점,37.624157,127.018623,강북구,205.0,11.38888888888889
ST-643,서울특별시 강북구 도봉로 355,,37.639263,127.026726,강북구,1571.0,87.27777777777777
ST-642,서울특별시 금천구 시흥대로73길 70,시흥동 1020,37.456478,126.895927,금천구,253.0,12.65
ST-641,서울특별시 금천구 가산디지털1로 128,가산동 371-37,37.47707,126.88443,금천구,436.0,22.94736842105263
ST-640,서울특별시 금천구 가산디지털2로 123,가산동 450-2,37.479084,126.879044,금천구,698.0,34.9
ST-64,서울특별시 영등포구 국제금융로7길 37,여의도고등학교 앞,37.524837,126.934906,영등포구,1223.0,53.17391304347826
ST-639,서울특별시 금천구 벚꽃로 115,"독산동 1081-9 (금천고가차도 하부, 태영아파트 앞)",37.466541,126.890282,금천구,666.0,33.3
ST-638,서울특별시 금천구 시흥대로 435,독산동 152-12,37.4725,126.897957,금천구,503.0,25.15
ST-637,서울특별시 금천구 두산로 71,독산동 295-22,37.47023,126.895073,금천구,1318.0,65.9
ST-636,서울특별시 금천구 시흥대로 391,독산동 291-4,37.469139,126.897202,금천구,732.0,36.6
ST-635,서울특별시 금천구 시흥대로150길 6,독산동 996-9,37.475319,126.898888,금천구,652.0,32.6
ST-634,서울특별시 금천구 한내로 62,독산동 1092 (도로다이어트 사업으로 보도 확장예정),37.456841,126.888344,금천구,186.0,9.3
ST-633,서울특별시 금천구 금하로1길 70,독산동 1094 (성민성결교회 앞),37.4547,126.891052,금천구,303.0,15.15
ST-632,서울특별시 금천구 독산동,독산동 1086 (금천교 사거리 독산근린공원 입구),37.46455,126.883728,금천구,1094.0,54.7
ST-631,서울특별시 금천구 시흥대로 287,독산동 1080-8,37.458912,126.89859,금천구,152.0,8.0
ST-630,서울특별시 금천구 시흥대로 217,시흥동 1000-71,37.452991,126.900909,금천구,415.0,20.75
ST-63,서울특별시 영등포구 의사당대로 110,미성아파트 A동 앞,37.519363,126.926048,영등포구,1278.0,55.56521739130435
ST-629,서울특별시 금천구 시흥대로 198,시흥동 1000-92,37.451458,126.902115,금천구,507.0,25.35
ST-628,서울특별시 금천구 시흥대로 446,시흥동 1001-7,37.44334,126.903358,금천구,139.0,6.95
ST-627,서울특별시 금천구 금하로 668,시흥동 1000-82,37.453121,126.904312,금천구,,
ST-626,서울특별시 금천구 시흥대로38길 61,시흥동 1001-1,37.446861,126.903831,금천구,,
ST-625,서울특별시 금천구 가산로 99,가산동 153-16,37.47422,126.894127,금천구,894.0,44.7
ST-624,서울특별시 금천구 디지털로9길 32,가산동 60-35,37.479031,126.887299,금천구,627.0,31.35
ST-623,서울특별시 금천구 가산디지털1로 63,가산동 319-11,37.470779,126.885155,금천구,904.0,45.2
ST-622,서울특별시 금천구 가산디지털1로 84,가산동 345-5,37.473209,126.884941,금천구,978.0,48.9
ST-621,서울특별시 금천구 가산디지털1로 233,가산동 602-3,37.486214,126.878639,금천구,643.0,32.15
ST-620,서울특별시 금천구 가산디지털2로 151,가산동 459-16,37.482288,126.877769,금천구,937.0,46.85
ST-62,서울특별시 영등포구 의사당대로 127,롯데캐슬엠파이어 옆,37.520695,126.925835,영등포구,2219.0,96.47826086956522
ST-619,서울특별시 금천구 벚꽃로 115,가산동 680-2 독산역 2번출구 뒤편 자전거 주차장,37.46653,126.888718,금천구,1241.0,62.05
ST-618,서울 서초구 동작대로 82,,37.483757,126.982399,서초구,24.0,2.1818181818181817
ST-617,서울특별시 도봉구 마들로11길 74,도봉구 창동 1-9,37.654049,127.050201,도봉구,,
ST-616,서울특별시 도봉구 도봉로 지하 486-1,쌍문동 83-5,37.650127,127.035347,도봉구,700.0,35.0
ST-615,서울특별시 도봉구 도봉로 552,창동 723-11,37.654461,127.038513,도봉구,943.0,47.15
ST-614,서울특별시 도봉구 마들로 656,방학동 720,37.669224,127.046516,도봉구,1106.0,55.3
ST-613,서울특별시 도봉구 창동 426-6,,37.645821,127.050423,도봉구,485.0,24.25
ST-612,서울특별시 노원구 동일로 1701,노원구 상계동 1263,37.680313,127.055069,노원구,745.0,39.21052631578947
ST-611,서울특별시 노원구 노해로 489,노원구 상계동 719-1,37.654701,127.0634,노원구,2938.0,154.6315789473684
ST-610,서울특별시 노원구 동일로 1351,노원구 상계동 747,37.649212,127.061768,노원구,1555.0,81.84210526315789
ST-61,서울특별시 영등포구 여의나루로 76,증권거래소 앞,37.523277,126.929237,영등포구,,
ST-609,서울특별시 노원구 덕릉로131길 8,노원구 상계동 37-7,37.67271,127.08316,노원구,184.0,9.68421052631579
ST-608,서울특별시 노원구 상계동 1355-2,,37.668461,127.077148,노원구,460.0,24.210526315789473
ST-607,서울특별시 노원구 동일로 1229,노원구 중계동 507-3,37.638649,127.066292,노원구,,
ST-606,서울특별시 노원구 하계동 271-5,,37.637569,127.063156,노원구,1177.0,61.94736842105263
ST-605,서울특별시 노원구 동일로 지하 1196,노원구 하계동 273-5,37.635109,127.068329,노원구,682.0,35.89473684210526
ST-604,서울특별시 노원구 공릉로 232 서울과학기술대학교,,37.629574,127.07679,노원구,1725.0,90.78947368421052
ST-603,서울특별시 노원구 화랑로 지하 510,노원구 공릉동 280-12,37.620369,127.083641,노원구,1737.0,91.42105263157895
ST-602,서울특별시 노원구 동일로 지하 992-1,노원구 공릉동 616-4,37.619171,127.074928,노원구,954.0,50.21052631578947
ST-601,서울특별시 노원구 월계로 252,노원구 월계동 860-16,0.0,0.0,노원구,,
ST-600,서울특별시 노원구 월계동 47-37,,37.615181,127.064644,노원구,2933.0,154.3684210526316
ST-60,서울특별시 영등포구 여의대로 38,금융감독원 앞,37.523022,126.920837,영등포구,1540.0,66.95652173913044
ST-6,서울특별시 마포구 양화로 61 두암빌딩,,37.550739,126.915085,마포구,1109.0,52.80952380952381
ST-599,서울특별시 중랑구 망우로 233,중랑구 중화동 211-3,37.595299,127.080032,중랑구,,
ST-598,서울특별시 서초구 방배로 110,석교빌딩 4층,37.484215,126.996292,서초구,1.0,1.0
ST-597,서울특별시 성북구 종암로 88,성북구 종암동 15-7,37.599285,127.034622,성북구,,
ST-596,서울특별시 중랑구 신내로 지하 232,홈플러스 신내점 앞,37.616169,127.093483,중랑구,,
ST-595,서울특별시 중랑구 동일로 594,늘푸른공원 앞,37.58342,127.079926,중랑구,,
ST-594,서울특별시 중랑구 용마산로 640,,37.608101,127.101181,중랑구,,
ST-593,서울특별시 중랑구 용마산로 644,능산삼거리,37.608681,127.100792,중랑구,,
ST-592,서울특별시 중랑구 사가정로 332,홈플러스 면목동점,37.579868,127.082367,중랑구,,
ST-591,서울특별시 중랑구 동일로 665,중목초등학교,37.589931,127.079811,중랑구,,
ST-590,서울특별시 중랑구 용마산로 지하 227,면목도시개발아파트 1동 앞,37.573589,127.086823,중랑구,,
ST-59,서울특별시 영등포구 여의대로 38,27,37.521908,126.918953,영등포구,2459.0,106.91304347826087
ST-589,서울특별시 중랑구 용마산로86길 9-27,용마문화복지센터,37.58746,127.09597,중랑구,,
ST-588,서울특별시 중랑구 송림길 147,양원역 2번출구,37.606312,127.107742,중랑구,,
ST-587,서울특별시 중랑구 신내역로 213,신내우디안아파트 1단지,37.620098,127.106461,중랑구,,
ST-586,서울특별시 중랑구 신내로 지하 232,신내역 4번출구,37.612461,127.103378,중랑구,,
ST-585,서울특별시 중랑구 신내로16길 33 신내동 의료안심주택,,37.613945,127.097702,중랑구,,
ST-584,서울특별시 중랑구 신내역로 165 신내 데시앙포레,,37.616707,127.11026,중랑구,,
ST-583,서울특별시 중랑구 신내역로1길 164,새솔초등학교,37.617439,127.109016,중랑구,,
ST-582,서울특별시 성북구 한천로 573,성북구 석관동 124-7,37.611309,127.06266,성북구,,
ST-581,서울특별시 중랑구 망우로 353,상봉지하차도,37.597599,127.089218,중랑구,,
ST-580,서울특별시 성북구 화랑로 296,성북구 석관동 384-2,37.612999,127.06131,성북구,796.0,41.89473684210526
ST-58,서울특별시 영등포구 의사당대로 88,27-1,37.521362,126.923462,영등포구,,
ST-579,서울특별시 성북구 석관동 202-3,,37.610291,127.058884,성북구,871.0,45.8421052631579
ST-578,서울특별시 성북구 석관동 134-1,,37.613518,127.066154,성북구,1340.0,70.52631578947368
ST-577,서울특별시 중랑구 신내로 지하 232,봉화산역 5번출구 뒤,37.617561,127.090309,중랑구,,
ST-576,서울특별시 성북구 한천로95길 7,성북구 장위동 270-465,37.61776,127.055969,성북구,,
ST-575,서울특별시 중랑구 면목로 434,면목초등학교,37.590961,127.087067,중랑구,,
ST-574,서울특별시 성북구 화랑로 지하 157,성북구 상월곡동 26-1,37.607342,127.050682,성북구,775.0,40.78947368421053
ST-573,서울특별시 중랑구 용마산로 285,581 번지,37.577782,127.090187,중랑구,,
ST-572,서울특별시 성북구 화랑로 지하 157,성북구 상월곡동 35-9,37.606068,127.047318,성북구,542.0,28.526315789473685
ST-571,서울특별시 성북구 화랑로 148,성북구 상월곡동 산7-1,37.605808,127.047737,성북구,331.0,17.42105263157895
ST-570,서울특별시 중랑구 동일로 지하 901,먹골역 6번출구 앞,37.610722,127.077477,중랑구,,
ST-57,서울특별시 영등포구 국회대로68길 7,26,37.522228,126.924637,영등포구,,
ST-569,서울특별시 중랑구 송림길 156,망우청소년수련관,37.606251,127.108269,중랑구,,
ST-568,서울특별시 중랑구 망우로55길 11-10,망우역 1번출구,37.599098,127.092949,중랑구,,
ST-567,서울특별시 성북구 월곡로 지하 107,성북구 종암동 113-10,37.600433,127.040207,성북구,,
ST-566,서울특별시 중랑구 망우로 211,중화빌딩,37.59425,127.076576,중랑구,,
ST-565,서울특별시 성북구 종암로3길 37-2,성북구 종암동 12-33,37.598068,127.039276,성북구,823.0,43.31578947368421
ST-564,서울특별시 성북구 화랑로 6,,37.60302,127.033295,성북구,,
ST-563,서울특별시 성북구 동소문로 248,동소문로248,37.603085,127.024788,성북구,857.0,45.10526315789474
ST-562,서울특별시 성북구 보국문로29길 23,성북구 정릉동 966-1,37.607262,127.002838,성북구,202.0,10.631578947368421
ST-561,서울특별시 중랑구 망우로 448,금란주차장 앞,37.600071,127.102333,중랑구,,
ST-560,서울특별시 성북구 보국문로29길 23,성북구 정릉동 966-1,37.607761,127.003281,성북구,118.0,6.2105263157894735
ST-56,서울특별시 영등포구 국제금융로 10 서울 국제금융 센터,,37.525433,126.924606,영등포구,,
ST-559,서울특별시 성북구 아리랑로19길 20,성북구 정릉동 966-62,37.60244,127.011688,성북구,188.0,9.894736842105264
ST-558,서울특별시 중랑구 동일로 941,중랑구 묵동 189-2,37.614738,127.076363,중랑구,,
ST-557,서울특별시 성북구 정릉로27가길 28-2,성북구 정릉동 138-15,37.603245,127.014191,성북구,,
ST-556,서울특별시 성북구 보국문로29길 23,성북구 정릉동 966-1,37.60379,127.01503,성북구,,
ST-555,서울특별시 서대문구 거북골로 34,서대문구 거북골로 34,37.581097,126.924026,서대문구,1508.0,68.54545454545455
ST-554,서울 서대문구 거북골로 34,,37.580597,126.923027,서대문구,,
ST-553,서울특별시 송파구 잠실로 62,송파구 잠실동 36-1,37.508873,127.087166,송파구,1285.0,91.78571428571429
ST-552,서울특별시 송파구 올림픽로 240,송파구 잠실동 40-1,37.508888,127.097229,송파구,,
ST-551,서울특별시 송파구 석촌호수로12길 3-17,송파구 잠실동 38,37.510509,127.093369,송파구,630.0,45.0
ST-550,서울특별시 송파구 올림픽로 240 롯데월드,,37.511841,127.095688,송파구,1555.0,111.07142857142857
ST-55,서울특별시 영등포구 국제금융로 24,24-3,37.524612,126.927834,영등포구,2982.0,129.65217391304347
ST-549,서울특별시 송파구 양산로 15,송파구 거여동 289-9,37.490688,127.143127,송파구,589.0,42.07142857142857
ST-548,서울특별시 송파구 올림픽로 74,송파구 잠실동 20,37.512169,127.078934,송파구,797.0,56.92857142857143
ST-547,서울특별시 송파구 백제고분로 95,송파구 잠실동 19-10,37.511982,127.085052,송파구,2164.0,154.57142857142858
ST-546,서울특별시 송파구 백제고분로15길 7,송파구 잠실동 230,37.505692,127.084038,송파구,1245.0,88.92857142857143
ST-545,서울특별시 송파구 충민로4길 19,송파구 장지동 839-4,37.479305,127.129799,송파구,451.0,32.214285714285715
ST-544,서울특별시 송파구 양재대로 지하 1233,송파구 방이동 89-28,37.516571,127.131538,송파구,933.0,66.64285714285714
ST-543,서울특별시 송파구 오금동 6-2,,37.50832,127.133217,송파구,136.0,9.714285714285714
ST-542,서울특별시 송파구 오금로 20,송파구 신천동 15,37.520451,127.104202,송파구,1644.0,117.42857142857143
ST-541,서울특별시 송파구 풍납동 472,,37.529747,127.119965,송파구,1315.0,93.92857142857143
ST-540,서울특별시 송파구 올림픽로 지하 23,송파구 잠실동 53-4,37.51128,127.078239,송파구,644.0,46.0
ST-54,서울 영등포구 여의대로 128,,37.527985,126.929207,영등포구,,
ST-539,서울특별시 송파구 올림픽로 8,송파구 잠실동 50,37.510429,127.071373,송파구,726.0,51.857142857142854
ST-538,서울특별시 강서구 까치산로4길 22,강서구 화곡동 98-148,37.54147,126.84478,강서구,803.0,40.15
ST-537,서울특별시 강서구 곰달래로 51,355-48,37.530338,126.838257,강서구,,
ST-536,서울특별시 강서구 강서로5길 50,강서구 화곡동 941-2,37.528919,126.848084,강서구,675.0,33.75
ST-535,서울특별시 강서구 강서로5길 50,강서구 화곡동 941-2,37.52906,126.84848,강서구,1142.0,57.1
ST-534,서울특별시 강서구 등촌로 19,강서구 화곡동 939-3,37.531399,126.863609,강서구,2005.0,100.25
ST-533,서울특별시 강서구 등촌로 95 대일빌딩,,37.538521,126.863434,강서구,672.0,33.6
ST-532,서울특별시 강서구 등촌로 137 대림아파트,,37.541264,126.863373,강서구,339.0,16.95
ST-531,서울특별시 강서구 등촌로 163-2 거리가게10,,37.544567,126.861969,강서구,686.0,34.3
ST-530,서울특별시 강서구 등촌로 185,강서구 등촌동 608-4,37.546532,126.862549,강서구,1654.0,82.7
ST-53,서울특별시 영등포구 여의공원로 13,13,37.524666,126.918022,영등포구,2208.0,96.0
ST-529,서울특별시 강서구 등촌로51나길 29,강서구 등촌동 520-6,37.548061,126.86042,강서구,,
ST-528,서울특별시 강서구 공항대로 지하 529,강서구 등촌동 505-3,37.551109,126.863709,강서구,1612.0,80.6
ST-527,서울특별시 강서구 화곡로 232,강서구 화곡동 94-6,37.546444,126.845459,강서구,,
ST-526,서울특별시 강서구 화곡로 196,강서구 화곡동 109-12,37.542751,126.842621,강서구,393.0,19.65
ST-525,서울특별시 강서구 화곡로 지하 168,강서구 화곡동 1089-43,37.542099,126.840218,강서구,1456.0,72.8
ST-524,서울특별시 강서구 화곡로 157,강서구 화곡동 1089-52,37.540981,126.838547,강서구,930.0,46.5
ST-523,서울특별시 강서구 강서로 지하 262,강서구 화곡동 1159-6,37.548908,126.836563,강서구,1563.0,78.15
ST-522,서울특별시 강서구 내발산동 645,,37.558178,126.838455,강서구,4798.0,239.9
ST-521,서울특별시 강서구 강서로80길 117,강서구 가양동 1459-9,37.57048,126.849503,강서구,,
ST-520,서울특별시 강서구 허준로 221-40 공원관리사무실,,37.561924,126.864166,강서구,2063.0,103.15
ST-52,서울특별시 영등포구 의사당대로 97,97,37.526264,126.920509,영등포구,1610.0,70.0
ST-519,서울특별시 강서구 양천로61길 101,강서구 가양동 1484-5,37.559479,126.86438,강서구,427.0,42.7
ST-518,서울특별시 강서구 허준로 139 강변아파트,,37.564785,126.854645,강서구,1546.0,77.3
ST-517,서울특별시 강서구 양천로 637,강서구 염창동 284-18,37.554253,126.867561,강서구,1099.0,54.95
ST-516,서울특별시 강서구 양천로 지하 560,강서구 등촌동 666-40,37.557461,126.861458,강서구,2521.0,126.05
ST-515,서울특별시 강서구 양천로 200,강서구 마곡동 223-6,37.572781,126.826279,강서구,,
ST-514,서울특별시 강서구 마곡동 221-4,,37.573124,126.822388,강서구,2356.0,117.8
ST-513,서울특별시 강서구 마곡서로 175,강서구 마곡동 754-6,37.568577,126.824776,강서구,3737.0,186.85
ST-512,서울특별시 강서구 마곡중앙5로 58,강서구 마곡동 743-3,37.566982,126.8218,강서구,2230.0,111.5
ST-511,서울특별시 강서구 방화동로 지하 30,강서구 공항동 산20-2,37.563347,126.810486,강서구,624.0,31.2
ST-510,서울특별시 강서구 방화동 614-287,,37.563873,126.810608,강서구,1322.0,66.1
ST-51,서울특별시 영등포구 국회대로 지하758,758,37.528057,126.918701,영등포구,1643.0,71.43478260869566
ST-509,서울특별시 강서구 금낭화로 176,강서구 방화동 855,37.581623,126.812653,강서구,354.0,17.7
ST-508,서울특별시 강서구 양천로17길 6,강서구 방화동 769-23,37.573643,126.811806,강서구,2185.0,109.25
ST-507,서울특별시 강서구 개화동로5길 3-8,강서구 개화동 424-2,37.581612,126.798599,강서구,111.0,5.55
ST-506,서울특별시 성동구 아차산로 100,성수동2가 315-105,37.544159,127.056656,성동구,3357.0,176.68421052631578
ST-505,서울특별시 강동구 성내동 379-41,,37.533779,127.137993,강동구,1228.0,55.81818181818182
ST-504,서울특별시 강동구 강일동 681,,37.564274,127.173973,강동구,1239.0,56.31818181818182
ST-503,서울특별시 강동구 성내로 57 강동경찰서,,37.528252,127.126801,강동구,3564.0,162.0
ST-502,서울특별시 강동구 성내동 434-28,,37.526794,127.130058,강동구,3595.0,163.4090909090909
ST-501,서울특별시 강동구 길동 252-91,,37.535446,127.145187,강동구,1398.0,63.54545454545455
ST-500,서울특별시 강동구 강일동 706,,37.559399,127.171181,강동구,520.0,23.636363636363637
ST-50,서울특별시 영등포구 의사당대로 8,8,37.528164,126.917023,영등포구,1085.0,47.17391304347826
ST-5,서울특별시 마포구 월드컵로 79,378-18,37.554951,126.910835,마포구,2174.0,103.52380952380952
ST-499,서울특별시 강동구 명일동 289-21,,37.550037,127.146912,강동구,758.0,34.45454545454545
ST-498,서울특별시 강동구 구천면로 395 명일동공영주차장,,37.5508,127.142952,강동구,,
ST-497,서울특별시 강동구 올림픽로 552,,37.530716,127.120987,강동구,2237.0,101.68181818181819
ST-496,서울특별시 강동구 올림픽로 610 서울상운자동차공업사,,37.536007,127.122726,강동구,2285.0,103.86363636363636
ST-495,서울특별시 강동구 성내동 450-31,,37.534744,127.135284,강동구,3999.0,181.77272727272728
ST-494,서울특별시 강동구 천호대로 1139 강동그린타워,,37.534508,127.138405,강동구,2631.0,119.5909090909091
ST-493,서울특별시 강동구 천호대로 1005 현대백화점,,37.538666,127.124245,강동구,4120.0,187.27272727272728
ST-492,서울특별시 강동구 올림픽로 767,,37.549355,127.127083,강동구,1011.0,101.1
ST-491,서울특별시 강동구 올림픽로 875 서울 암사동 유적,,37.559559,127.130875,강동구,134.0,6.090909090909091
ST-490,서울특별시 강동구 고덕로 131 강동 롯데캐슬퍼스트아파트,,37.554867,127.142799,강동구,183.0,8.318181818181818
ST-489,서울특별시 강동구 고덕로 362,상일동 146,0.0,0.0,강동구,,
ST-488,서울특별시 강동구 올림픽로 812,,37.553329,127.128868,강동구,1601.0,72.77272727272727
ST-487,서울특별시 강동구 올림픽로 702 해공도서관,,37.543957,127.125488,강동구,975.0,44.31818181818182
ST-486,서울특별시 강동구 올림픽로 714 가로판매대-12,,37.545265,127.125938,강동구,2266.0,103.0
ST-485,서울특별시 강동구 올림픽로 674 로석빌딩,,37.541794,127.124748,강동구,1124.0,51.09090909090909
ST-484,서울특별시 서초구 방배로 110,위트콤,37.484215,126.996292,서초구,,
ST-483,서울특별시 광진구 능동로 10,뚝섬유원지역,37.532688,127.067497,광진구,1078.0,67.375
ST-482,서울특별시 성동구 성수동2가 276-5,KEB하나은행 성수중앙지점,37.545418,127.052643,성동구,1175.0,61.8421052631579
ST-481,서울특별시 은평구 서오릉로 163,LG서비스 역촌점,37.612484,126.914879,은평구,1632.0,70.95652173913044
ST-480,서울특별시 은평구 연서로 117,예일여중,37.610004,126.916397,은평구,980.0,42.608695652173914
ST-48,서울특별시 성동구 자동차시장 3길 64 (물재생센터),운영센터,37.557598,127.065308,성동구,10.0,1.25
ST-479,서울특별시 은평구 역촌동 45-34,역촌파출소,37.604736,126.915337,은평구,2400.0,104.34782608695652
ST-478,서울특별시 은평구 역촌동 41-7,구 서부경찰서 건너편,37.601662,126.920303,은평구,802.0,34.869565217391305
ST-477,서울특별시 은평구 응암동 86-15,국민은행 응암점,37.601051,126.924225,은평구,,
ST-476,서울특별시 은평구 진관동 133-29,은평역사한옥박물관,37.641315,126.938042,은평구,179.0,7.782608695652174
ST-475,서울특별시 은평구 불광동 304-5,연신내역 3번출구 인근,37.617855,126.922524,은평구,336.0,14.608695652173912
ST-474,서울특별시 은평구 불광동 276-6,불광역 8번출구,37.611179,126.929665,은평구,,
ST-473,서울특별시 은평구 불광동 285-43,불광역 2번출구,37.609566,126.930977,은평구,656.0,28.52173913043478
ST-472,서울특별시 은평구 진관동 161-9,메뚜기다리,37.628517,126.929581,은평구,,
ST-471,서울특별시 은평구 불광동 355,국민은행 연서지점,37.620949,126.925636,은평구,407.0,17.695652173913043
ST-470,서울특별시 은평구 대조동 227-2,연신내역 4번출구,37.617802,126.921967,은평구,484.0,21.043478260869566
ST-47,서울특별시 영등포구 여의공원로 101,101,37.528816,126.92453,영등포구,3137.0,136.3913043478261
ST-469,서울특별시 은평구 진관동 242-14,신도고등학교,37.630016,126.919029,은평구,109.0,4.954545454545454
ST-468,서울특별시 은평구 녹번동 116-3,서울혁신파크 건너편,0.0,0.0,은평구,,
ST-467,서울특별시 은평구 녹번동 15-2,서울혁신파크,37.607025,126.933311,은평구,527.0,22.91304347826087
ST-466,서울특별시 은평구 불광동 260-2,서부경찰서,37.612679,126.927757,은평구,,
ST-465,서울특별시 은평구 은평로 240 힐스테이트녹번역,,37.600746,126.935013,은평구,1124.0,48.869565217391305
ST-464,서울특별시 은평구 역촌동 15-40,평생학습관 앞,37.607849,126.921326,은평구,1150.0,50.0
ST-463,서울특별시 은평구 증산동 199-8,증산역 4번출구,37.584381,126.909897,은평구,1277.0,55.52173913043478
ST-462,서울특별시 은평구 신사동 352-2,,37.590809,126.913689,은평구,1997.0,86.82608695652173
ST-461,서울특별시 은평구 응암동 90-15,이마트 은평점,37.6007,126.920128,은평구,1861.0,80.91304347826087
ST-460,서울특별시 은평구 응암동 604-5,응암오거리,37.589661,126.916946,은평구,1817.0,79.0
ST-46,서울특별시 영등포구 국회대로76길 10,13-1,37.531239,126.921333,영등포구,1437.0,62.47826086956522
ST-459,서울특별시 은평구 녹번동 153-31,은평평화공원(역촌역4번출구),37.605583,126.922935,은평구,1697.0,73.78260869565217
ST-458,서울특별시 은평구 신사동 35-23,새절역 사거리,0.0,0.0,은평구,,
ST-457,서울특별시 은평구 응암동 761-9,백련산 힐스테이트 3차,37.586994,126.922882,은평구,472.0,20.52173913043478
ST-456,서울특별시 은평구 갈현동 536-8,구산역 4번출구,37.613186,126.917351,은평구,1138.0,49.47826086956522
ST-455,서울특별시 은평구 은평로 85 CJ드림시티,,37.599495,126.916985,은평구,2801.0,121.78260869565217
ST-454,서울특별시 은평구 대조동 207-8,연신내역 5번출구,37.61721,126.919579,은평구,2019.0,87.78260869565217
ST-453,서울특별시 은평구 진관동 86-31,구파발역 2번출구,37.636234,126.918999,은평구,1974.0,85.82608695652173
ST-452,서울특별시 은평구 진관동 5-8,은평뉴타운 푸르지오,37.648674,126.930702,은평구,578.0,25.130434782608695
ST-451,서울특별시 은평구 진관동 13-20,은평뉴타운 아이파크,37.645866,126.927391,은평구,834.0,36.26086956521739
ST-450,서울특별시 은평구 진관동 45-21,진관동 은빛초등학교,37.643108,126.918221,은평구,549.0,23.869565217391305
ST-45,서울특별시 영등포구 의사당대로 1,1,37.528416,126.913918,영등포구,182.0,10.11111111111111
ST-449,서울특별시 은평구 응암동 84-14,응암1동사무소,37.600975,126.926956,은평구,,
ST-448,서울특별시 은평구 녹번동 85-4,은평예술회관,37.603943,126.927696,은평구,555.0,24.130434782608695
ST-447,서울특별시 성동구 마장로42길 14,마장동 주민센터,37.565941,127.045395,성동구,583.0,30.68421052631579
ST-446,서울특별시 성동구 성수동2가 569-3,성수2가1동 공영주차장 인근,37.536808,127.055489,성동구,3221.0,169.52631578947367
ST-445,서울특별시 광진구 군자동 374-8,광진광장 교통섬,37.547829,127.072632,광진구,2680.0,167.5
ST-444,서울특별시 종로구 혜화동 56,동성중학교 앞,37.585735,127.00161,종로구,,
ST-443,서울특별시 마포구 성산동 515,서울 월드컵 경기장,37.566845,126.896446,마포구,921.0,43.857142857142854
ST-442,서울특별시 용산구 서빙고로 279,서빙고동 주민센터 앞,37.520336,126.994263,용산구,1814.0,82.45454545454545
ST-441,서울특별시 용산구 효창원로 161,효창동주민센터 앞,37.54232,126.96196,용산구,254.0,11.545454545454545
ST-440,서울특별시 용산구 한강로3가 66-4,,37.522026,126.966187,용산구,379.0,17.227272727272727
ST-439,서울특별시 용산구 한강대로 349,청파동입구 교차로,37.549026,126.971947,용산구,637.0,28.954545454545453
ST-438,서울특별시 용산구 원효로97길 33-4,선린인터넷 고등학교,37.541653,126.970505,용산구,1057.0,48.04545454545455
ST-437,서울특별시 용산구 청파로47길 100,숙명여대 입구 교차로,37.544895,126.969383,용산구,1010.0,45.90909090909091
ST-436,서울특별시 용산구 한강대로 161,삼각지역 4번출구 앞,37.533451,126.971733,용산구,906.0,41.18181818181818
ST-435,서울특별시 용산구 한강대로 115,신용산역 6번출구 앞,37.530148,126.968483,용산구,1489.0,67.68181818181819
ST-434,서울특별시 용산구 백범로 350,원효로1동 주민센터 앞,37.537514,126.967567,용산구,,
ST-433,서울특별시 양천구 가로공원로 145,신월보건센터 부근,37.536671,126.832184,양천구,,
ST-432,서울특별시 양천구 신월로 97,서울강월초등학교 앞,37.516197,126.8349,양천구,449.0,19.52173913043478
ST-431,서울특별시 양천구 등촌로 22-1 가로판매대6,,37.531097,126.864029,양천구,1116.0,48.52173913043478
ST-430,서울특별시 양천구 목동중앙서로7길 26,목동 삼성쉐르빌 앞,37.522659,126.870834,양천구,,
ST-43,서울특별시 서대문구 창천동 84-16,,37.559864,126.934418,서대문구,171.0,7.7727272727272725
ST-429,서울특별시 양천구 목동서로 221,목동 굿모닝탑,37.514713,126.860916,양천구,,
ST-428,서울특별시 양천구 목동서로 355,,37.517319,126.864319,양천구,1399.0,60.82608695652174
ST-427,서울특별시 양천구 목동서로 201,KT 목동타워 앞,37.52845,126.8722,양천구,,
ST-426,서울특별시 영등포구 당산로52길 3,당산육갑문,37.535339,126.903679,영등포구,4272.0,185.7391304347826
ST-425,서울특별시 영등포구 여의동로 48,샛강생태공원장문자센터 앞,37.518963,126.921616,영등포구,589.0,25.608695652173914
ST-424,서울특별시 영등포구 여의나루로 76,증권거래소후문교차로,37.522343,126.927101,영등포구,1090.0,47.391304347826086
ST-423,서울특별시 영등포구 여의나루로 96,MBC,0.0,0.0,영등포구,,
ST-422,서울특별시 영등포구 양평로 58,그랜드컨벤션센터 앞,37.534718,126.900002,영등포구,2098.0,91.21739130434783
ST-421,서울특별시 영등포구 양평로 76,삼성화재 사옥 옆,37.535961,126.8983,영등포구,1490.0,64.78260869565217
ST-420,서울특별시 영등포구 영등포로 177,영등포청과시장 사거리,37.520294,126.901192,영등포구,1440.0,62.608695652173914
ST-42,서울특별시 서대문구 연세로 50,27,37.562382,126.932648,서대문구,405.0,18.40909090909091
ST-419,서울특별시 영등포구 영등포로 124,영등포유통상가 사거리,37.521133,126.896538,영등포구,1606.0,69.82608695652173
ST-418,서울특별시 영등포구 영등포로 96,교보생명보험 앞,37.521931,126.891617,영등포구,1624.0,70.6086956521739
ST-417,서울특별시 영등포구 선유로 34,근로자회관 사거리,37.517151,126.888626,영등포구,3855.0,167.6086956521739
ST-416,서울특별시 영등포구 선유로 59 문래 아카데미,,37.519089,126.889099,영등포구,1434.0,119.5
ST-415,서울특별시 영등포구 선유로 82,KB국민은행 문래동지점 앞,0.0,0.0,영등포구,,
ST-414,서울특별시 영등포구 여의서로 60-2 가로판매대22,,37.533657,126.912163,영등포구,426.0,18.52173913043478
ST-413,서울특별시 영등포구 당산로 111-2,영등포구청역 1번출구,37.524635,126.896217,영등포구,6930.0,301.30434782608694
ST-412,서울특별시 동대문구 망우로 126,매봉주유소 중랑교지점,0.0,0.0,동대문구,,
ST-411,서울특별시 동대문구 한천로 42,이마트 장안점,0.0,0.0,동대문구,,
ST-410,서울특별시 동대문구 장안동 473-6,,37.566971,127.074295,동대문구,1371.0,85.6875
ST-41,서울특별시 서대문구 연세로 50-1,89-4,37.560009,126.940735,서대문구,505.0,22.954545454545453
ST-409,서울특별시 동대문구 천호대로 231,,37.570354,127.048431,동대문구,1104.0,69.0
ST-408,서울특별시 동대문구 청계천로 563,용두역 4번출구,37.573753,127.038536,동대문구,1334.0,83.375
ST-407,서울특별시 동대문구 홍릉로 26-1 거리가게,,37.58255,127.044601,동대문구,630.0,39.375
ST-406,서울특별시 동대문구 서울시립대로 163 서울시립대학교,,37.585045,127.060272,동대문구,353.0,22.0625
ST-405,서울특별시 동대문구 한천로43길 12-14,서울시립대 정보기술관,37.583008,127.060974,동대문구,264.0,16.5
ST-404,서울특별시 동대문구 회기로 85,KAIST 경영대학 앞,37.591614,127.045792,동대문구,546.0,34.125
ST-403,서울특별시 동대문구 회기로 56,세종대왕기념관 교차로,37.5909,127.042587,동대문구,287.0,17.9375
ST-402,서울특별시 동대문구 이문로1길 11,시조사 앞 (청량고정문 옆),37.587517,127.052773,동대문구,863.0,53.9375
ST-401,서울특별시 동대문구 이문로 107,외국어대 정문 앞,37.59602,127.05983,동대문구,1107.0,69.1875
ST-400,서울특별시 동대문구 홍릉로 1 기업은행 청량리지점,,37.580498,127.044724,동대문구,1431.0,89.4375
ST-40,서울특별시 서대문구 증가로 264,342-14,37.559177,126.934525,서대문구,342.0,15.545454545454545
ST-4,서울특별시 마포구 월드컵로 72,475-54,37.555649,126.910629,마포구,2709.0,129.0
ST-399,서울특별시 동대문구 왕산로 209,청량리역 3번출구 앞,37.581047,127.046135,동대문구,,
ST-398,서울특별시 동대문구 천호대로 269,답십리역 1번출구,37.568184,127.051277,동대문구,2108.0,131.75
ST-397,서울특별시 동대문구 천호대로 145,동대문구 보건소,37.574852,127.040306,동대문구,1495.0,93.4375
ST-396,서울특별시 동대문구 한천로 290 휘봉고등학교,,37.586777,127.067642,동대문구,523.0,32.6875
ST-395,서울특별시 동대문구 사가정로 240,장안동삼거리 교통섬,37.578632,127.071907,동대문구,789.0,49.3125
ST-394,서울특별시 동대문구 장한로6길 95,군자교녹지대 동측 앞,37.561153,127.070969,동대문구,1102.0,68.875
ST-393,서울특별시 동대문구 전농로 34,답십리초등학교 앞(현대시장 옆),37.568192,127.057175,동대문구,,
ST-392,서울특별시 동대문구 서울시립대로 31,전농동 동아아파트 앞(T-World 앞 보도),37.574188,127.045891,동대문구,1026.0,64.125
ST-391,서울특별시 동대문구 서울시립대로 161,서울시립대 정문 앞(시더프라자빌딩 앞),37.583698,127.053856,동대문구,1149.0,71.8125
ST-390,서울특별시 동대문구 사가정로 119,전농사거리 교통섬(전농서적 앞),37.577793,127.057831,동대문구,700.0,43.75
ST-39,서울특별시 서대문구 연세로2다길 58,60-11,37.556812,126.943184,서대문구,293.0,13.318181818181818
ST-389,서울특별시 동대문구 전농동 693-1,,37.57489,127.053535,동대문구,259.0,16.1875
ST-388,서울특별시 광진구 구천면로 2,광진청소년수련관,37.546547,127.106133,광진구,1068.0,66.75
ST-387,서울특별시 광진구 아차산로 552,광나루역 3번 출구,37.54483,127.104263,광진구,1293.0,80.8125
ST-386,서울특별시 광진구 용마산로 120,중앙농협 중곡지점,37.564293,127.086937,광진구,311.0,19.4375
ST-385,서울특별시 광진구 능동로 216,아차산역4번출구,37.551849,127.088982,광진구,1327.0,82.9375
ST-384,서울특별시 광진구 능동로 216,구의문주차장 앞,37.545231,127.084732,광진구,1255.0,78.4375
ST-383,서울특별시 광진구 능동로 398,국립정신 건강센터 앞,37.56538,127.08651,광진구,,
ST-382,서울특별시 광진구 군자동 98-22,,37.550396,127.075859,광진구,1370.0,85.625
ST-381,서울특별시 광진구 강변역로 17,구의3동주민센터,37.537849,127.092171,광진구,309.0,19.3125
ST-380,서울특별시 영등포구 영등포로34길 9,영등포 영남 공용 주차장,37.519463,126.902649,영등포구,14.0,1.2727272727272727
ST-38,서울특별시 마포구 신촌로26길 10,1-83,37.556004,126.942299,마포구,,
ST-379,서울특별시 광진구 동일로 459,중곡 성원APT 앞,37.571255,127.079803,광진구,424.0,26.5
ST-378,서울특별시 광진구 구의강변로 64,대림아크로리버 앞,37.536579,127.092972,광진구,575.0,35.9375
ST-377,서울특별시 광진구 구의강변로 106,구의삼성쉐르빌 앞,37.540062,127.094498,광진구,1792.0,112.0
ST-376,서울특별시 성동구 마장로39길 51,청계천 생태교실 앞,37.56797,127.04689,성동구,3269.0,172.05263157894737
ST-375,서울특별시 성동구 성수일로 27,경일중학교 앞,37.543179,127.04908,성동구,1264.0,66.52631578947368
ST-374,서울특별시 성동구 용답25길 1,용답초등학교,37.561012,127.054237,성동구,,
ST-373,서울특별시 성동구 무수막길 97,신금호역 3번출구 뒤,37.554493,127.02021,성동구,,
ST-372,서울특별시 성동구 마장로 292-1,마장역 4번출구,37.565205,127.041847,성동구,735.0,38.68421052631579
ST-371,서울특별시 성동구 광나루로 297 성동세무서,,37.54829,127.062462,성동구,1230.0,64.73684210526316
ST-370,서울특별시 성동구 독서당로 381,응봉동현대아파트 정류소,37.549583,127.030243,성동구,182.0,9.578947368421053
ST-37,서울특별시 서대문구 명물길 65,,37.559227,126.939842,서대문구,416.0,18.90909090909091
ST-369,서울특별시 동대문구 청계천로 417,청계8가사거리 부근,37.571102,127.02356,동대문구,1520.0,95.0
ST-368,서울특별시 성동구 아차산로 113,성수역 2번출구 앞,37.54459,127.057083,성동구,3312.0,174.31578947368422
ST-367,서울특별시 성동구 뚝섬로1길 43,성수문화복지회관 앞,37.545208,127.047142,성동구,,
ST-366,서울특별시 성동구 옥수동 192-2,,37.541367,127.017761,성동구,2983.0,157.0
ST-365,서울특별시 성동구 동호로 99,금호역 3번출구,37.547928,127.015572,성동구,85.0,4.473684210526316
ST-364,서울특별시 성동구 광나루로 302,성동세무서 건너편,37.547913,127.062752,성동구,1401.0,73.73684210526316
ST-363,서울특별시 성동구 동일로 313,군자지하보도 앞,37.559246,127.07341,성동구,933.0,49.10526315789474
ST-362,서울특별시 성동구 왕십리로 64,서울숲역 2번출구 앞,37.542816,127.04467,성동구,1292.0,68.0
ST-361,서울특별시 성동구 동일로 213,비전교회 앞,37.551205,127.068932,성동구,1670.0,87.89473684210526
ST-360,서울특별시 성동구 왕십리광장로 10-1,왕십리역 4번 출구 건너편,37.561096,127.036797,성동구,1501.0,79.0
ST-36,서울특별시 서대문구 명물길 33,31-69,37.557892,126.93808,서대문구,531.0,24.136363636363637
ST-359,서울특별시 성동구 고산자로 260,성동광진 교육지원청 앞,37.564606,127.036522,성동구,1136.0,59.78947368421053
ST-358,서울특별시 성동구 무학로10길 6,도선동 주민센터 앞,37.567642,127.025696,성동구,1018.0,53.578947368421055
ST-357,서울특별시 성동구 금호동4가 367-1,달맞이공원,37.542053,127.020401,성동구,66.0,3.8823529411764706
ST-356,서울특별시 성동구 광나루로 297,성동세무서 부근,37.548164,127.06237,성동구,,
ST-355,서울특별시 성동구 광나루로 334,화양사거리,37.548149,127.06707,성동구,,
ST-354,서울특별시 서대문구 충정로 59 서대문 디오빌 오피스텔,,37.563908,126.964973,서대문구,415.0,18.863636363636363
ST-353,서울특별시 서대문구 현저동 102-53,독립문역 4번출구,37.573921,126.958305,서대문구,,
ST-352,서울특별시 서대문구 홍제천로 48,연희교차로 인근,37.56612,126.925896,서대문구,355.0,16.136363636363637
ST-351,서울특별시 서대문구 연희동 446-76,모래내고가차도,37.567657,126.917809,서대문구,517.0,23.5
ST-350,서울특별시 서대문구 불광천길 36,증산교 앞,37.577316,126.902969,서대문구,1232.0,56.0
ST-35,서울특별시 서대문구 불광천길 150,345-27,37.582031,126.908997,서대문구,1429.0,64.95454545454545
ST-349,서울특별시 서대문구 북가좌동 352-9,증산3교 앞,37.579876,126.906349,서대문구,1097.0,49.86363636363637
ST-348,서울특별시 서대문구 연희동 519-7,연서어린이공원,37.572227,126.923065,서대문구,428.0,19.454545454545453
ST-347,서울특별시 서대문구 응암로 66,정명학원,37.578892,126.910736,서대문구,835.0,37.95454545454545
ST-346,서울특별시 서대문구 연희로37안길 51,홍은동 정원여중 입구,37.586388,126.935127,서대문구,567.0,25.772727272727273
ST-345,서울특별시 서대문구 북가좌동 427-1,,37.577637,126.909653,서대문구,549.0,24.954545454545453
ST-344,서울특별시 마포구 하늘공원로 108-1,월드컵공원,37.563965,126.898209,마포구,1185.0,56.42857142857143
ST-343,서울특별시 마포구 현석동 106-32,마포 신수공원 앞,37.542545,126.934296,마포구,862.0,41.04761904761905
ST-342,서울특별시 마포구 월드컵로 119,SK망원동주유소 건너편,37.558949,126.907753,마포구,1901.0,90.52380952380952
ST-341,서울특별시 마포구 연남동 365-19,,37.565388,126.919327,마포구,2080.0,99.04761904761905
ST-340,서울특별시 마포구 합정동 450-47,,37.551365,126.903061,마포구,742.0,35.333333333333336
ST-34,서울특별시 서대문구 연세로5나길 19,53-47,37.556889,126.935104,서대문구,,
ST-339,서울특별시 마포구 마포나루길 467,망원초록길 입구,37.551342,126.902672,마포구,745.0,35.476190476190474
ST-338,서울특별시 중구 을지로 227,훈련원공원주차장 앞,37.566994,127.003464,중구,889.0,40.40909090909091
ST-337,서울특별시 종로구 성균관로 91,올림픽기념 국민생활관 앞,37.590233,126.99852,종로구,,
ST-336,서울특별시 종로구 서린동 26-1,종각역 5번출구,37.569836,126.982658,종로구,,
ST-3356,서울특별시 동대문구 용두동 747,,37.582298,127.029366,동대문구,,
ST-3355,서울특별시 마포구 토정로 295,,37.541199,126.942116,마포구,,
ST-3354,서울특별시 종로구 옥인동 145-4,,37.580559,126.968788,종로구,,
ST-3353,서울특별시 동대문구 장한로 91 현대썬앤빌601,,37.569069,127.069466,동대문구,,
ST-3352,서울특별시 강동구 고덕로 131 강동 롯데캐슬퍼스트아파트,,37.557568,127.14016,강동구,,
ST-3351,서울특별시 광진구 능동로 120 건국대학교,,37.540886,127.079285,광진구,,
ST-3350,서울특별시 서초구 남부순환로 2114,,37.475979,126.98391,서초구,,
ST-335,서울특별시 용산구 이촌동301-5,LIG강촌아파트 103동앞,37.518509,126.978798,용산구,1028.0,46.72727272727273
ST-3349,서울특별시 서대문구 모래내로 334 홍은2동주민센터,,37.580269,126.93425,서대문구,,
ST-3348,서울특별시 강남구 선릉로 629,,37.51263,127.042831,강남구,,
ST-3347,서울 서대문구 성산로 374,,37.563259,126.930244,서대문구,,
ST-3346,서울특별시 중랑구 용마산로 670 신내역 프라디움 더 테라스,,37.61039,127.101357,중랑구,,
ST-3345,서울특별시 중랑구 망우로 266 상봉 동양엔파트,,37.595272,127.08213,중랑구,,
ST-3344,서울특별시 성북구 종암로 167 동일하이빌뉴시티,,37.605152,127.031296,성북구,,
ST-3343,서울특별시 송파구 오금로35길 17 현대아파트,,37.503662,127.12606,송파구,,
ST-3342,서울특별시 중구 세종대로9길 20 대경빌딩 신한은행 본점,,37.560776,126.974808,중구,,
ST-3341,서울특별시 영등포구 도림천로 62,,37.515945,126.882889,영등포구,,
ST-3340,서울특별시 광진구 천호대로 673 신제빌딩,,37.551052,127.090439,광진구,,
ST-334,서울특별시 용산구 한강로1가 228-1,삼각지역 3번출구,37.533512,126.972275,용산구,697.0,31.681818181818183
ST-3339,서울특별시 광진구 아차산로69길 19 현대아파트,,37.542065,127.098068,광진구,,
ST-3338,서울특별시 노원구 상계동 620,,37.670994,127.050461,노원구,,
ST-3337,서울특별시 강서구 양천로 547,,37.55875,126.859917,강서구,,
ST-3336,서울특별시 강동구 아리수로27길 2,,37.557446,127.138168,강동구,,
ST-3335,서울특별시 강동구 고덕동 673,,37.559494,127.145126,강동구,,
ST-3334,서울특별시 동대문구 한천로14길 87,,37.566307,127.067688,동대문구,,
ST-3333,서울특별시 동대문구 왕산로 20,,37.576225,127.025803,동대문구,,
ST-3332,서울특별시 서초구 강남대로 519 도충빌딩,,37.508369,127.022324,서초구,,
ST-3331,서울특별시 영등포구 선유로 75 GS강서타워,,37.520981,126.889297,영등포구,,
ST-3330,서울특별시 영등포구 선유로 58,,37.518982,126.889404,영등포구,,
ST-333,서울특별시 용산구 용산동1가 8-4,용산전쟁기념관,37.53484,126.977661,용산구,,
ST-3329,서울특별시 강동구 길동 158-8,,37.540436,127.148399,강동구,,
ST-3328,서울특별시 동대문구 전농로 91,,37.573055,127.057213,동대문구,,
ST-3327,서울특별시 강서구 강서로 194,,37.543449,126.838913,강서구,,
ST-3326,서울특별시 성동구 아차산로 126 더리브 세종타워,,37.543781,127.058037,성동구,,
ST-3325,서울특별시 성동구 성수일로6길 53 유원지식산업센터,,37.544365,127.055931,성동구,,
ST-3324,서울특별시 강서구 마곡중앙로 111,,37.56356,126.824623,강서구,,
ST-3323,서울특별시 영등포구 국회대로56길 13,,37.524212,126.90995,영등포구,291.0,58.2
ST-3322,서울특별시 영등포구 영신로 183 당산 SH VILLE,,37.524567,126.902,영등포구,195.0,39.0
ST-3321,서울 성동구 살곶이길 7,,37.571796,127.038658,성동구,118.0,19.666666666666668
ST-3320,서울특별시 성동구 고산자로 330,,37.569115,127.037544,성동구,37.0,9.25
ST-332,서울특별시 용산구 용산동2가 6-7,녹사평역1번출구,37.53508,126.985382,용산구,295.0,14.047619047619047
ST-3319,서울특별시 영등포구 의사당대로 1 국회,,37.531834,126.919456,영등포구,12.0,4.0
ST-3318,서울특별시 영등포구 의사당대로 1 국회,,37.531071,126.916687,영등포구,28.0,4.0
ST-3317,서울특별시 동대문구 용두동 39-559,,37.573444,127.040886,동대문구,148.0,16.444444444444443
ST-3316,서울특별시 동대문구 천호대로 301 답십리역 지웰에스테이트,,37.566002,127.054314,동대문구,540.0,60.0
ST-3315,서울특별시 영등포구 여의대로 38 금융감독원,여의도동 27,37.523491,126.921623,영등포구,502.0,62.75
ST-3314,서울특별시 영등포구 문래동3가 55-6,,37.518372,126.898445,영등포구,702.0,30.52173913043478
ST-3313,서울특별시 영등포구 당산로4길 12 문래자이,,37.515209,126.897629,영등포구,473.0,20.565217391304348
ST-3312,서울특별시 강동구 길동 산26-1,,37.540043,127.150742,강동구,507.0,23.045454545454547
ST-3311,서울특별시 구로구 새말로 117-23 가로판매대,,37.507607,126.89135,구로구,1495.0,71.19047619047619
ST-3310,서울특별시 서초구 신반포로33길 15 동아아파트,,37.507896,127.010056,서초구,271.0,12.318181818181818
ST-331,서울특별시 용산구 용산동2가 5-1812,이태원지하보도,37.53841,126.986649,용산구,452.0,20.545454545454547
ST-3309,서울특별시 광진구 자양동 236-91,,37.536961,127.062737,광진구,711.0,44.4375
ST-3308,서울특별시 성북구 보문로 75,,37.582047,127.020996,성북구,292.0,36.5
ST-3307,서울특별시 강남구 개포로 310 디에이치퍼스티어아이파크,,37.481319,127.054352,강남구,469.0,24.68421052631579
ST-3306,서울특별시 구로구 개봉로24길 46,,37.495636,126.857979,구로구,60.0,3.3333333333333335
ST-3305,서울특별시 중구 인현동2가 140-1,,37.564392,126.997299,중구,461.0,20.954545454545453
ST-3304,서울특별시 양천구 목동로 201,,37.526497,126.864067,양천구,2643.0,114.91304347826087
ST-3303,서울특별시 구로구 신도림동 430-1,,37.506836,126.884789,구로구,1941.0,92.42857142857143
ST-3302,서울특별시 강남구 언주로 202 삼성래미안아파트,,37.489204,127.051064,강남구,238.0,12.526315789473685
ST-3301,서울특별시 노원구 상계로 97-4,,37.657036,127.065933,노원구,791.0,41.63157894736842
ST-3300,서울특별시 송파구 올림픽로 424 올림픽공원,,37.521572,127.126884,송파구,1596.0,114.0
ST-330,서울특별시 용산구 독서당로 18,한남 유수지 복개주차장,37.530167,127.007439,용산구,535.0,24.318181818181817
ST-33,서울특별시 서대문구 증가로 264,북가좌동354-4,37.584171,126.911102,서대문구,1493.0,67.86363636363636
ST-3299,서울특별시 노원구 동일로245길 162 은빛1단지아파트,,37.68121,127.055168,노원구,143.0,7.526315789473684
ST-3298,서울특별시 서초구 양재동 404,,37.46949,127.047882,서초구,204.0,9.272727272727273
ST-3297,서울특별시 중구 세종대로 101 시청역 1호선,,37.56654,126.976845,중구,1638.0,74.45454545454545
ST-3296,서울특별시 강남구 개포동 141,,37.479549,127.064056,강남구,120.0,6.315789473684211
ST-3295,서울특별시 송파구 강동대로 62 잠실.송파세무서,,37.526463,127.113693,송파구,119.0,8.5
ST-3294,서울특별시 강남구 개포동 659,,37.477486,127.057434,강남구,251.0,13.210526315789474
ST-3293,서울특별시 노원구 화랑로 653 태능국제종합사격장,,37.629665,127.097237,노원구,38.0,2.375
ST-3292,서울특별시 노원구 월계동 777-1,,37.632332,127.0495,노원구,174.0,9.157894736842104
ST-3291,서울특별시 중구 동호로 367-1 구두수선대212,,37.567398,127.002014,중구,392.0,17.818181818181817
ST-3290,서울특별시 노원구 공릉동 89-2,,37.620632,127.083839,노원구,175.0,9.210526315789474
ST-329,서울특별시 용산구 서빙고동 235-5,서빙고동 금호맨션 앞,37.520504,126.989738,용산구,230.0,10.454545454545455
ST-3289,서울특별시 노원구 공릉로 351 한신청구아파트,,37.637897,127.067604,노원구,612.0,32.21052631578947
ST-3288,서울특별시 노원구 상계로 79 노블리빙텔. 상가,,37.656555,127.063591,노원구,1971.0,103.73684210526316
ST-3287,서울특별시 노원구 동일로 1449 도봉운전면허시험장,,37.664017,127.058174,노원구,727.0,38.26315789473684
ST-3286,서울특별시 동대문구 전농동 623-8,,37.577919,127.044563,동대문구,1063.0,66.4375
ST-3285,서울특별시 송파구 장지동 432-11,,37.480095,127.138496,송파구,144.0,10.285714285714286
ST-3284,서울특별시 강서구 남부순환로 222 서울자동차학원,,37.546135,126.82106,강서구,211.0,10.55
ST-3283,서울특별시 영등포구 신길동 262-1,,37.505764,126.908661,영등포구,533.0,23.17391304347826
ST-3282,서울특별시 노원구 섬밭로 139 공릉풍림아파트,,37.628193,127.067879,노원구,131.0,6.894736842105263
ST-3281,서울특별시 강서구 양천로57길 36 가양5단지아파트,,37.56448,126.854645,강서구,315.0,15.75
ST-3280,서울특별시 노원구 수락산로 214 구립 수락노인종합복지관,,37.671253,127.054749,노원구,677.0,35.63157894736842
ST-328,서울특별시 용산구 동자동 14-229,서울역 12번 출구 앞,37.552277,126.972687,용산구,687.0,31.227272727272727
ST-3279,서울특별시 은평구 은평터널로 15,,37.583694,126.894127,은평구,1600.0,69.56521739130434
ST-3278,서울특별시 노원구 동일로227길 26 상계주공15단지아파트,,37.669403,127.05632,노원구,669.0,35.21052631578947
ST-3277,서울특별시 성동구 송정동 74-362,,37.55463,127.0578,성동구,310.0,16.31578947368421
ST-3276,서울특별시 강서구 화곡동 1089-50,,37.540981,126.837433,강서구,1105.0,55.25
ST-3275,서울특별시 중랑구 망우동 609,,37.6091,127.111603,중랑구,,
ST-3274,서울특별시 노원구 상계동 140-357,,37.664753,127.076004,노원구,818.0,43.05263157894737
ST-3273,서울특별시 송파구 거여동 657-12,,37.48885,127.156998,송파구,166.0,11.857142857142858
ST-3272,서울특별시 마포구 성중길 82,,37.57402,126.901024,마포구,963.0,45.857142857142854
ST-3271,서울특별시 마포구 아현동 790,,37.555157,126.952927,마포구,106.0,5.578947368421052
ST-3270,서울특별시 노원구 공릉동 25-64,,37.634342,127.104279,노원구,22.0,1.8333333333333333
ST-327,서울특별시 용산구 한강로3가 16-8,전자랜드 본관 앞,37.533066,126.960732,용산구,769.0,34.95454545454545
ST-3269,서울특별시 도봉구 방학동 726-155,,37.662891,127.045403,도봉구,555.0,27.75
ST-3268,서울특별시 강남구 남부순환로 3104 SETEC,,37.49662,127.070999,강남구,205.0,10.789473684210526
ST-3267,서울특별시 성동구 천호대로 282 남주빌딩,,37.56678,127.05233,성동구,1133.0,59.63157894736842
ST-3266,서울특별시 노원구 동일로 1456 상계주공7단지아파트,,37.65984,127.059357,노원구,720.0,37.89473684210526
ST-3265,서울특별시 성동구 성수동2가 283-1,,37.551052,127.052223,성동구,915.0,48.1578947368421
ST-3264,서울특별시 성북구 장위동 319-2,,37.619247,127.045586,성북구,746.0,39.26315789473684
ST-3263,서울특별시 강서구 양천로 201,,37.573318,126.830071,강서구,225.0,11.25
ST-3262,서울특별시 노원구 노원로 238,,37.639172,127.07473,노원구,1028.0,54.10526315789474
ST-3261,서울특별시 강서구 마곡중앙10로 10 LG사이언스파크,,37.564037,126.829788,강서구,880.0,44.0
ST-3260,서울특별시 강서구 마곡중앙10로 30 LG사이언스파크,,37.561535,126.83194,강서구,1005.0,50.25
ST-326,서울특별시 용산구 문배동 34-10,문배어린이공원 앞,37.536758,126.970001,용산구,974.0,44.27272727272727
ST-3259,서울특별시 강서구 마곡중앙10로 30 LG사이언스파크,,37.563816,126.832085,강서구,798.0,39.9
ST-3258,서울특별시 동대문구 왕산로 168 삼성화재청량리사옥,,37.579021,127.042244,동대문구,1284.0,80.25
ST-3257,서울특별시 서초구 내곡동 1-3021,,37.460632,127.080978,서초구,10.0,1.4285714285714286
ST-3256,서울특별시 노원구 한글비석로 39-2,,37.635345,127.067528,노원구,1088.0,57.26315789473684
ST-3255,서울특별시 중구 청파로 463 한국경제신문사,,37.560627,126.967682,중구,390.0,17.727272727272727
ST-3254,서울특별시 강남구 도산대로 520-2,,37.524647,127.049149,강남구,315.0,16.57894736842105
ST-3253,서울특별시 중랑구 신내로 225 디아뜨갤러리,,37.617386,127.090782,중랑구,,
ST-3252,서울특별시 구로구 가마산로 208,,37.493126,126.884247,구로구,851.0,40.523809523809526
ST-3251,서울특별시 강서구 마곡중앙10로 70 LG사이언스파크,,37.563496,126.835831,강서구,2888.0,144.4
ST-3250,서울특별시 영등포구 도림로 325-2 구두수선대68,,37.506119,126.901611,영등포구,387.0,16.82608695652174
ST-325,서울특별시 용산구 한남동 725-17,한남초교 앞 보도육교,37.538139,127.004097,용산구,,
ST-3249,서울특별시 용산구 이촌로71길 10 한가람아파트,,37.520271,126.973351,용산구,621.0,28.227272727272727
ST-3248,서울특별시 강동구 천호대로 1162 세양청마루아파트,,37.533466,127.140503,강동구,1245.0,56.59090909090909
ST-3247,서울특별시 송파구 거여동 657,,37.484486,127.140678,송파구,284.0,20.285714285714285
ST-3246,서울특별시 송파구 도곡로62길 10 체육시설 관리사무실,,37.504112,127.076622,송파구,,
ST-3245,서울특별시 강남구 자곡동 203-1,,37.481857,127.104561,강남구,209.0,11.0
ST-3244,서울특별시 마포구 월드컵북로38길 53 월드컵참누리아파트,,37.572124,126.905975,마포구,625.0,29.761904761904763
ST-3243,서울특별시 강남구 도산대로 446-2,,37.523903,127.046608,강남구,188.0,9.894736842105264
ST-3242,서울특별시 송파구 송파대로 234,,37.492538,127.119446,송파구,455.0,32.5
ST-3241,서울특별시 영등포구 국회대로 596 영등포구민회관,,37.526684,126.900192,영등포구,829.0,36.04347826086956
ST-3240,서울특별시 강남구 영동대로 230 우성1차아파트,,37.500996,127.068039,강남구,625.0,32.89473684210526
ST-324,서울특별시 용산구 한남동 726-494,한강진역 2번 출구 앞,37.541153,127.002213,용산구,240.0,11.428571428571429
ST-3239,서울특별시 영등포구 여의대로 128,,37.528332,126.930176,영등포구,2437.0,105.95652173913044
ST-3238,서울특별시 영등포구 영등포로 244 로프트시티,,37.519062,126.908394,영등포구,1825.0,79.34782608695652
ST-3237,서울특별시 구로구 고척로 49 동부골든아파트,,37.499382,126.841141,구로구,273.0,13.0
ST-3236,서울특별시 금천구 가산로9길 109,,37.474525,126.887077,금천구,940.0,47.0
ST-3235,서울특별시 영등포구 버드나루로 15,,37.520241,126.912453,영등포구,2693.0,117.08695652173913
ST-3234,서울특별시 강북구 삼양로27길 19 삼성래미안트리베라아파트,,37.617928,127.021362,강북구,356.0,20.941176470588236
ST-3233,서울특별시 중랑구 면목동 727-101,,37.582676,127.07766,중랑구,,
ST-3232,서울특별시 송파구 거여동 697,,37.497143,127.146416,송파구,137.0,9.785714285714286
ST-3231,서울특별시 송파구 거마로 62 효명빌딩,,37.498371,127.146957,송파구,,
ST-3230,서울특별시 송파구 중대로 121 송파롯데캐슬파인힐,,37.494286,127.121704,송파구,743.0,53.07142857142857
ST-323,서울특별시 용산구 용산동5가 24-3,서빙고 근린공원 앞,37.524117,126.972122,용산구,,
ST-3229,서울특별시 송파구 장지동 917-12,,37.475052,127.133041,송파구,,
ST-3228,서울특별시 성동구 용답동 128-3,,37.570454,127.046944,성동구,324.0,17.05263157894737
ST-3227,서울특별시 양천구 안양천로 939 목동종합운동장,,37.529377,126.88308,양천구,498.0,21.652173913043477
ST-3226,서울특별시 강서구 강서로56길 49 원당공원화장실,,37.559475,126.841476,강서구,2288.0,114.4
ST-3225,서울특별시 구로구 구일로8길 150,,37.497082,126.877884,구로구,1467.0,69.85714285714286
ST-3224,서울특별시 양천구 신정동 759-5,,37.510612,126.842613,양천구,509.0,22.130434782608695
ST-3223,서울특별시 구로구 천왕동 14-129,,37.486904,126.838943,구로구,697.0,33.19047619047619
ST-3222,서울특별시 구로구 개봉동 416-285,,37.49752,126.852951,구로구,210.0,10.0
ST-3221,서울특별시 서초구 양재천로19길 4,,37.475559,127.038261,서초구,648.0,29.454545454545453
ST-3220,서울특별시 서초구 남부순환로 2311-12 래미안방배아트힐,,37.477306,127.00592,서초구,200.0,9.523809523809524
ST-322,서울특별시 용산구 원효로4가 109-10,목월공원 앞,37.532433,126.954742,용산구,801.0,36.40909090909091
ST-3219,서울특별시 금천구 디지털로10길 78 가산테라타워,,37.475204,126.890129,금천구,1132.0,56.6
ST-3218,서울특별시 노원구 동일로227길 85 상계주공11단지아파트,,37.664509,127.052704,노원구,578.0,30.42105263157895
ST-3217,서울특별시 서초구 내곡동 188-3,,37.455318,127.06366,서초구,,
ST-3216,서울특별시 서초구 신원동 44-32,,37.434746,127.065948,서초구,31.0,2.066666666666667
ST-3215,서울특별시 양천구 신월동 446-3,,37.523994,126.842133,양천구,694.0,30.17391304347826
ST-3214,서울특별시 송파구 오금로 113 석촌씨티빌딩,,37.512291,127.108253,송파구,2958.0,211.28571428571428
ST-3213,서울특별시 마포구 신촌로 212 아현교회당,,37.556778,126.949341,마포구,186.0,8.857142857142858
ST-3212,서울특별시 영등포구 당산로 83,,37.521954,126.895508,영등포구,3290.0,143.04347826086956
ST-3211,서울특별시 노원구 덕릉로118길 17 불암신기아파트,,37.667519,127.079163,노원구,133.0,22.166666666666668
ST-3210,서울특별시 중구 신당동 44-40,,37.561043,127.018211,중구,1019.0,46.31818181818182
ST-321,서울특별시 양천구 신월동 790,한국SGI 양천문화회관 앞,37.532547,126.830803,양천구,681.0,29.608695652173914
ST-3209,서울 강동구 천호동 397-465,,37.541466,127.130257,강동구,830.0,37.72727272727273
ST-3208,서울특별시 강남구 논현동 56-21,,37.51281,127.026367,강남구,220.0,11.578947368421053
ST-3207,서울특별시 강남구 영동대로 214-2,,37.498615,127.068314,강남구,513.0,27.0
ST-3206,서울특별시 동대문구 정릉천동로 90 현대아파트,,37.579948,127.035324,동대문구,250.0,15.625
ST-3205,서울특별시 성동구 성수동1가 694-71,,37.542557,127.044235,성동구,236.0,12.421052631578947
ST-3204,서울특별시 영등포구 경인로 900 여의도더리브스타일,,37.517918,126.912598,영등포구,1848.0,80.34782608695652
ST-3203,서울특별시 성북구 길음동 1289-5,,37.608849,127.028458,성북구,545.0,28.68421052631579
ST-3202,서울특별시 서대문구 통일로 81 NH농협생명빌딩,,37.562336,126.969093,서대문구,451.0,20.5
ST-3201,서울특별시 은평구 진관동 151-10,,37.628342,126.933815,은평구,148.0,6.434782608695652
ST-3200,서울특별시 영등포구 신길동 195-3,,37.51157,126.913979,영등포구,557.0,24.217391304347824
ST-320,서울특별시 양천구 신월동 790,양서중학교 옆,37.533047,126.829956,양천구,701.0,30.47826086956522
ST-32,서울특별시 마포구 신촌로 94,31-123,37.554859,126.936157,마포구,1401.0,66.71428571428571
ST-3199,서울특별시 관악구 관천로 53,,37.485317,126.92466,관악구,434.0,22.842105263157894
ST-3198,서울특별시 동대문구 용두동 792-8,,37.574261,127.035454,동대문구,479.0,29.9375
ST-3197,서울특별시 도봉구 방학로12길 28 도봉여성센터. 보육정보센터,,37.663349,127.030457,도봉구,241.0,12.05
ST-3196,서울특별시 금천구 범안로15길 21,,37.467541,126.892822,금천구,572.0,28.6
ST-3195,서울특별시 구로구 경인로43길 49 고척아이파크,구로구 고척동 102-2,37.498013,126.860985,구로구,1008.0,48.0
ST-3194,서울특별시 구로구 중앙로5길 59,,37.501087,126.860458,구로구,1014.0,48.285714285714285
ST-3193,서울특별시 강북구 삼양로54길 68 강북청소년문화정보도서관,,37.62302,127.021866,강북구,339.0,18.833333333333332
ST-3192,서울특별시 노원구 공릉동 25-64,,37.635735,127.10585,노원구,53.0,2.9444444444444446
ST-3191,경기도 하남시 학암동 652-1,,37.484833,127.149918,,,
ST-3190,경기도 하남시 학암동 651-1,위례솔,37.486931,127.153648,,,
ST-319,서울특별시 양천구 신월동 905,강월초교입구 사거리,37.516998,126.838318,양천구,676.0,29.391304347826086
ST-3189,서울특별시 구로구 온수동 48-4,,37.491795,126.825005,구로구,351.0,16.714285714285715
ST-3188,서울특별시 광진구 구의동 252-133,,37.538033,127.083557,광진구,1438.0,89.875
ST-3187,서울특별시 영등포구 당산로 220-2 구두수선대50,,37.53363,126.901459,영등포구,3590.0,156.08695652173913
ST-3186,서울특별시 광진구 천호대로 567 성원주차장,,37.556812,127.081078,광진구,,
ST-3185,서울특별시 강남구 남부순환로 2741,,37.48661,127.045509,강남구,493.0,25.94736842105263
ST-3184,서울특별시 강북구 미아동 762-136,,37.624912,127.019791,강북구,177.0,9.833333333333334
ST-3183,서울특별시 강서구 화곡동 947-3,,37.528412,126.846039,강서구,,
ST-3182,서울특별시 구로구 구로중앙로39길 11,,37.505196,126.87619,구로구,1145.0,54.523809523809526
ST-3181,서울특별시 서초구 방배동 산33-2,,37.476917,127.006111,서초구,79.0,4.388888888888889
ST-3180,서울특별시 서초구 남부순환로 2248 서울시교원연수원,,37.473423,126.997772,서초구,93.0,4.65
ST-318,서울특별시 양천구 신월동 1063-4,신일해피트리아파트 앞,37.517059,126.848488,양천구,877.0,38.130434782608695
ST-3179,서울특별시 강남구 일원동 698,,37.494045,127.086784,강남구,638.0,33.578947368421055
ST-3178,서울특별시 강남구 대치동 398,,37.496658,127.069382,강남구,137.0,7.2105263157894735
ST-3177,서울특별시 도봉구 노해로70길 19 주공19단지아파트,,37.652657,127.053093,도봉구,867.0,43.35
ST-3176,서울특별시 도봉구 창동 1-24,,37.65704,127.049912,도봉구,,
ST-3175,서울특별시 도봉구 창동 38-6,,37.645645,127.054596,도봉구,943.0,47.15
ST-3174,서울특별시 노원구 하계동 166-2,,37.636459,127.072769,노원구,936.0,49.26315789473684
ST-3173,서울특별시 동대문구 한천로55길 9 이문동삼익아파트,,37.596397,127.067764,동대문구,182.0,11.375
ST-3172,서울특별시 도봉구 방학동 718,,37.669224,127.044418,도봉구,1184.0,59.2
ST-3171,서울특별시 영등포구 신길동 65-6,,37.5135,126.920868,영등포구,1168.0,50.78260869565217
ST-3170,서울특별시 영등포구 신길동,,37.513199,126.923523,영등포구,537.0,23.347826086956523
ST-317,서울특별시 양천구 신정동 855-5,,37.509712,126.84417,양천구,439.0,19.08695652173913
ST-3169,서울특별시 은평구 서오릉로 253 은평서해그랑블,,37.61705,126.906586,은평구,515.0,22.391304347826086
ST-3168,서울특별시 중랑구 중화동 50-13,,37.603184,127.074135,중랑구,,
ST-3167,서울특별시 노원구 동일로191가길 59 공릉동 신도1차아파트,,37.627808,127.069618,노원구,886.0,46.63157894736842
ST-3166,서울특별시 관악구 봉천동 42-59,,37.485065,126.95546,관악구,299.0,15.736842105263158
ST-3165,서울특별시 동대문구 무학로 134-2 구두수선대,,37.578171,127.0317,동대문구,401.0,25.0625
ST-3164,서울특별시 강남구 영동대로 646 위레벤646,,37.519737,127.057678,강남구,202.0,10.631578947368421
ST-3163,서울특별시 양천구 목동 404-174,,37.52367,126.875671,양천구,3279.0,142.56521739130434
ST-3162,서울특별시 송파구 백제고분로 236-2 구두수선대,,37.503017,127.09214,송파구,1261.0,90.07142857142857
ST-3161,서울특별시 중구 남학동 12-1,,37.560925,126.990662,중구,166.0,7.545454545454546
ST-3160,서울특별시 영등포구 국제금융로7길 27 삼부아파트,,37.525394,126.930458,영등포구,1654.0,71.91304347826087
ST-316,서울특별시 양천구 신정동 760-2,신정3동 현장민원실 앞,37.511585,126.84156,양천구,586.0,25.47826086956522
ST-3159,서울특별시 용산구 문배동 44,,37.539303,126.970505,용산구,407.0,18.5
ST-3158,서울특별시 성북구 길음동 1289-3,,37.60696,127.02607,성북구,105.0,5.526315789473684
ST-3157,서울특별시 서초구 남부순환로340길 49 서울특별시데이터센터,,37.480118,127.021805,서초구,60.0,3.3333333333333335
ST-3156,서울특별시 서초구 남부순환로340길 57 서울연구원,,37.479755,127.019852,서초구,,
ST-3155,서울특별시 동대문구 약령시로 20 새울센스빌,,37.582657,127.031967,동대문구,299.0,18.6875
ST-3154,서울특별시 강동구 둔촌동 118-2,,37.523281,127.146133,강동구,226.0,10.272727272727273
ST-3153,서울특별시 송파구 가락동 95-3,,37.497555,127.114944,송파구,551.0,39.357142857142854
ST-3152,서울특별시 강북구 번동 429-121,,37.635361,127.037674,강북구,471.0,26.166666666666668
ST-3151,서울특별시 송파구 양재대로 1239 한국체육대학교,,37.51796,127.131783,송파구,334.0,23.857142857142858
ST-3150,서울특별시 송파구 양재대로 1231 올림픽공원역,,37.519196,127.132622,송파구,101.0,7.214285714285714
ST-315,서울특별시 양천구 신정동 319-3,서울출입국관리사무소 앞,37.51897,126.869965,양천구,3686.0,160.2608695652174
ST-3149,서울특별시 노원구 한글비석로14길 36 극동의푸른별 2차아파트,,37.658688,127.077591,노원구,594.0,31.263157894736842
ST-3148,서울특별시 송파구 방이동 88-16,,37.527653,127.119301,송파구,482.0,34.42857142857143
ST-3147,서울특별시 강동구 구천면로 317 광채빌라,,37.547966,127.135162,강동구,662.0,30.09090909090909
ST-3146,서울특별시 양천구 가로공원로 156,,37.536427,126.833412,양천구,623.0,27.08695652173913
ST-3145,서울특별시 강서구 공항대로 213 보타닉파크타워2,,37.559486,126.831314,강서구,1239.0,61.95
ST-3144,서울특별시 서초구 서초동 1747-1,,37.482853,127.005974,서초구,225.0,10.227272727272727
ST-3143,서울특별시 관악구 신림동 110-99,,37.472202,126.933907,관악구,472.0,24.842105263157894
ST-3142,서울특별시 영등포구 경인로 846 영등포 민자역사,,37.516693,126.908073,영등포구,4094.0,178.0
ST-3141,서울특별시 송파구 풍납동 70-18,,37.539139,127.12162,송파구,486.0,34.714285714285715
ST-3140,서울특별시 서대문구 연세로5나길 19 신촌. 파랑고래,,37.556877,126.936035,서대문구,670.0,30.454545454545453
ST-314,서울특별시 양천구 중앙로 209,신정3동주민센터,37.515156,126.854897,양천구,,
ST-3139,서울특별시 서대문구 연희동 735,,37.57914,126.934509,서대문구,1044.0,47.45454545454545
ST-3138,서울특별시 용산구 이태원로 59,,37.54039,126.973495,용산구,437.0,19.863636363636363
ST-3137,서울특별시 강서구 마곡동 761-5,,37.569809,126.828575,강서구,578.0,28.9
ST-3136,서울특별시 성동구 성수일로10길 26 하우스디 세종타워,,37.546444,127.053322,성동구,,
ST-3135,서울특별시 용산구 원효로53길 4,,37.535778,126.962212,용산구,631.0,28.681818181818183
ST-3134,서울특별시 노원구 상계로 309,,37.670738,127.07962,노원구,226.0,11.894736842105264
ST-3133,서울특별시 송파구 방이동 181-8,,37.510643,127.131676,송파구,312.0,22.285714285714285
ST-3132,서울특별시 송파구 양재대로 1127 방이역,,37.508335,127.125679,송파구,,
ST-3131,서울특별시 송파구 풍납동 436,,37.52618,127.11676,송파구,567.0,40.5
ST-3130,서울특별시 마포구 대흥로20길 28 마포아트센터,,37.550343,126.945801,마포구,1169.0,55.666666666666664
ST-313,서울특별시 양천구 신월동 894,신정네거리역,37.521881,126.851753,양천구,752.0,32.69565217391305
ST-3129,서울특별시 강서구 방화대로50길 8 연세강서빌딩,,37.576252,126.817345,강서구,2022.0,101.1
ST-3128,서울특별시 강서구 마곡중앙10로 70 LG사이언스파크,,37.563648,126.834541,강서구,1643.0,82.15
ST-3127,서울특별시 은평구 역촌동 233-1,,37.603542,126.906723,은평구,360.0,15.652173913043478
ST-3126,서울특별시 은평구 진관동 85-3,,37.634068,126.925392,은평구,382.0,16.608695652173914
ST-3125,서울특별시 강서구 공항대로 543 센터스퀘어,,37.550648,126.866165,강서구,1196.0,59.8
ST-3124,서울특별시 구로구 경인로53길 15 중앙유통단지,,37.50127,126.876785,구로구,662.0,31.523809523809526
ST-3123,서울특별시 노원구 한글비석로 332 주공2단지아파트,,37.65694,127.078049,노원구,624.0,32.8421052631579
ST-3122,서울특별시 노원구 석계로 59 월계1동주민센터,,37.61985,127.063103,노원구,551.0,29.0
ST-3121,서울특별시 성동구 아차산로 83 에프투텔레콤,,37.545559,127.053368,성동구,1203.0,63.31578947368421
ST-3120,서울특별시 성동구 성수이로 134 현대자동차써비스(주)동부사업소,,37.546978,127.057968,성동구,928.0,48.8421052631579
ST-312,서울특별시 양천구 신정동 1095,남부법원검찰청 교차로,37.523254,126.864906,양천구,2521.0,109.6086956521739
ST-3119,서울특별시 도봉구 방학로 131-1 구두수선대,,37.662991,127.038643,도봉구,934.0,46.7
ST-3118,서울특별시 강서구 허준로 217 가양테크노타운,,37.56036,126.862762,강서구,603.0,37.6875
ST-3117,서울특별시 동작구 여의대방로16길 1 태성대아파트,,37.495823,126.917816,동작구,,
ST-3116,서울특별시 노원구 동일로 1386-2 가로판매대,,37.652294,127.061348,노원구,1703.0,89.63157894736842
ST-3115,서울특별시 강남구 논현로 420,,37.497753,127.038574,강남구,136.0,7.157894736842105
ST-3114,서울특별시 서대문구 홍은동 387-61,,37.577168,126.929062,서대문구,525.0,23.863636363636363
ST-3113,서울특별시 서대문구 남가좌동 318-20,,37.576019,126.926834,서대문구,988.0,44.90909090909091
ST-3112,서울특별시 강남구 테헤란로87길 36 도심공항타워,,37.509991,127.058472,강남구,660.0,34.73684210526316
ST-3111,서울특별시 강남구 봉은사로86길 6 빌딩 레베쌍트,,37.51292,127.056427,강남구,200.0,10.526315789473685
ST-3110,서울특별시 노원구 노원로 333 목련아파트상가,,37.648628,127.069183,노원구,547.0,28.789473684210527
ST-311,서울특별시 양천구 오목로 344 청학빌딩,,37.523628,126.875244,양천구,3561.0,154.82608695652175
ST-3109,서울특별시 강남구 도곡로 177-2,,37.491074,127.036194,강남구,280.0,14.736842105263158
ST-3108,서울특별시 강남구 봉은사로 130 노보텔 앰배서더 강남 서울,,37.505703,127.029198,강남구,277.0,14.578947368421053
ST-3107,서울특별시 서대문구 충정로 28-1 충정로역(5호선),,37.559425,126.963058,서대문구,218.0,9.909090909090908
ST-3106,서울특별시 동작구 흑석동 25-21,,37.506828,126.966736,동작구,,
ST-3105,서울특별시 동작구 보라매로5길 24,,37.492943,126.924622,동작구,,
ST-3104,서울특별시 양천구 오목로 245 목동역,,37.526531,126.864456,양천구,3219.0,139.95652173913044
ST-3103,서울특별시 구로구 경인로 70 계림 웨스트벨리,,37.49091,126.829651,구로구,125.0,5.9523809523809526
ST-3102,서울특별시 영등포구 영등포로 383,,37.513824,126.920937,영등포구,896.0,38.95652173913044
ST-3101,서울특별시 노원구 월계동 865-5,,37.625149,127.049934,노원구,501.0,26.36842105263158
ST-3100,서울특별시 강서구 등촌동 681-2,,37.564182,126.840279,강서구,1171.0,58.55
ST-310,서울특별시 양천구 목동 904-3,목4동주민센터 옆,37.532543,126.868729,양천구,2086.0,90.69565217391305
ST-31,서울특별시 마포구 신촌로 106,31-123,37.555054,126.937569,마포구,480.0,22.857142857142858
ST-3099,서울특별시 성동구 천호대로 384,,37.561687,127.061516,성동구,1332.0,70.10526315789474
ST-3098,서울특별시 강동구 천호동 250-7,,37.548164,127.122574,강동구,1213.0,55.13636363636363
ST-3097,서울특별시 노원구 한글비석로52길 66 신동아아파트,,37.667679,127.068253,노원구,196.0,10.31578947368421
ST-3096,서울특별시 강남구 언주로 738-2,,37.52211,127.036461,강남구,256.0,13.473684210526315
ST-3095,서울특별시 은평구 증산동 264,,37.579048,126.901352,은평구,1462.0,63.56521739130435
ST-3094,서울특별시 강서구 화곡로 416 가양역 더스카이밸리5차 지식산업센터,,37.560196,126.854912,강서구,4253.0,212.65
ST-3093,서울특별시 도봉구 도봉동 282-275,,37.687508,127.042633,도봉구,194.0,9.7
ST-3092,서울특별시 도봉구 도봉로 420,,37.643246,127.031601,도봉구,1202.0,60.1
ST-3091,서울특별시 도봉구 도봉로 534,,37.652954,127.037544,도봉구,343.0,17.15
ST-3090,서울특별시 종로구 중학동 10-3,,37.575714,126.980507,종로구,,
ST-309,서울특별시 양천구 목동 813,목동사거리 부근,37.532803,126.86393,양천구,1639.0,71.26086956521739
ST-3089,서울특별시 양천구 신정동 1325-2,,37.510975,126.869843,양천구,1691.0,73.52173913043478
ST-3088,서울특별시 구로구 경인로 518 CJ공장,,37.500755,126.877083,구로구,203.0,9.666666666666666
ST-3087,서울특별시 강동구 상일동 519-3,,37.556553,127.165878,강동구,1010.0,45.90909090909091
ST-3086,서울특별시 서초구 방배중앙로 207-10 아크로리버,,37.498173,126.984482,서초구,1507.0,68.5
ST-3085,서울특별시 강동구 양재대로 1634,,37.551426,127.144211,강동구,1166.0,53.0
ST-3084,서울특별시 강서구 가양동 14-26,,37.562508,126.852753,강서구,2601.0,130.05
ST-3083,서울특별시 용산구 용산동6가 69-170,,37.517941,126.983704,용산구,516.0,23.454545454545453
ST-3082,서울특별시 용산구 청파로 312,,37.547337,126.970383,용산구,186.0,20.666666666666668
ST-3081,서울특별시 용산구 서빙고로 35 용산시티파크1단지,,37.524693,126.968224,용산구,421.0,19.136363636363637
ST-3080,서울특별시 용산구 원효로2가 1-73,,37.537861,126.965652,용산구,624.0,28.363636363636363
ST-308,서울특별시 양천구 목동 559,KB국민은행 염창역 지점 앞,37.546848,126.872772,양천구,1085.0,47.17391304347826
ST-3079,서울특별시 강남구 테헤란로 626-2,,37.50972,127.066795,강남구,671.0,35.31578947368421
ST-3078,서울특별시 강남구 압구정로 152 극동타워,,37.525723,127.025887,강남구,404.0,21.263157894736842
ST-3077,서울특별시 강남구 테헤란로 518 한국섬유산업연합회,,37.507671,127.060173,강남구,935.0,49.21052631578947
ST-3076,서울특별시 은평구 응암동 225-72,,37.595867,126.923492,은평구,410.0,17.82608695652174
ST-3075,서울특별시 종로구 세종로 208,,37.569931,126.976433,종로구,,
ST-3074,서울특별시 영등포구 국제금융로 15 IFC~파크원간 지하공공보도,,37.526287,126.926178,영등포구,,
ST-3073,서울특별시 영등포구 여의대로 66 하이투자증권,,37.524643,126.923424,영등포구,,
ST-3072,서울특별시 영등포구 여의대로 70 신한금융투자타워,여의대로 70,37.525089,126.92408,영등포구,,
ST-3071,서울특별시 송파구 거여동 657,,37.482944,127.140442,송파구,282.0,20.142857142857142
ST-3070,서울특별시 송파구 풍납동 219-3,,37.534882,127.115227,송파구,1505.0,107.5
ST-307,서울특별시 영등포구 신길동1368,대방역6번출구,37.513592,126.925934,영등포구,2431.0,105.69565217391305
ST-3069,서울특별시 송파구 올림픽로 474,,37.524715,127.117439,송파구,208.0,14.857142857142858
ST-3068,서울특별시 강서구 양천로 660 왈도강서캠퍼스,,37.552216,126.870224,강서구,1137.0,56.85
ST-3067,서울특별시 구로구 금오로 867,,37.477154,126.839859,구로구,333.0,15.857142857142858
ST-3066,서울특별시 강남구 강남대로 652,,37.519169,127.018974,강남구,230.0,12.105263157894736
ST-3065,서울특별시 동작구 동작대로 241,,37.49815,126.983688,동작구,,
ST-3064,서울특별시 동작구 상도동 158-10,,37.501575,126.945908,동작구,,
ST-3063,서울특별시 노원구 덕릉로70길 64,,37.642555,127.060387,노원구,490.0,25.789473684210527
ST-3062,서울특별시 서대문구 연희동 222-1,,37.563557,126.928276,서대문구,759.0,34.5
ST-3061,서울특별시 영등포구 의사당대로 88 한국투자증권빌딩,,37.522434,126.922714,영등포구,1774.0,77.1304347826087
ST-3060,서울특별시 노원구 공릉로 213 동신아파트,,37.627861,127.076378,노원구,2617.0,137.73684210526315
ST-306,서울특별시 영등포구 영등포동1가35,신길역3번출구,37.517693,126.914299,영등포구,1924.0,83.65217391304348
ST-3059,서울특별시 양천구 목동로 186 목동신시가지아파트7단지,,37.526245,126.865784,양천구,799.0,34.73913043478261
ST-3058,서울특별시 은평구 진관동 91-10,,37.634701,126.917358,은평구,409.0,17.782608695652176
ST-3057,서울특별시 강남구 영동대로 416 (주)케이티앤지 타워,,37.506874,127.064735,강남구,,
ST-3056,서울특별시 용산구 이태원로 190,,37.53439,126.994972,용산구,459.0,20.863636363636363
ST-3055,서울특별시 구로구 개봉로23가길 10 한양아이클래스 구로,,37.495552,126.856979,구로구,321.0,15.285714285714286
ST-3054,서울특별시 용산구 소월로 109 남산도서관,,37.552406,126.982018,용산구,552.0,25.09090909090909
ST-3053,서울특별시 중구 서소문로 18 에이원빌딩,,37.559376,126.964142,중구,544.0,24.727272727272727
ST-3052,서울특별시 중구 서애로 33 티엔에스빌딩,,37.559692,126.996483,중구,568.0,25.818181818181817
ST-3051,서울특별시 서대문구 충정로2가 8-3,,37.56599,126.966072,서대문구,1083.0,49.22727272727273
ST-3050,서울특별시 도봉구 도봉구 마들로 805 (도봉동실내스포츠센터 앞),,37.681255,127.050476,도봉구,553.0,27.65
ST-305,서울특별시 영등포구 신길동95-256,신길삼거리(우리은행),37.513844,126.919357,영등포구,,
ST-3049,서울특별시 강남구 강남구 개포동 182-4 (개포동역 4번출구),,37.489296,127.06617,강남구,717.0,37.73684210526316
ST-3048,서울특별시 양천구 서울시 양천구 신정종 836-38,,37.50922,126.837158,양천구,178.0,7.739130434782608
ST-3047,서울특별시 양천구 양천구 신월로 390,,37.521641,126.865555,양천구,1479.0,64.30434782608695
ST-3046,서울특별시 성북구 성북구 종암로 123,,37.601089,127.033318,성북구,1104.0,58.10526315789474
ST-3045,서울특별시 성북구 성북구 솔샘로 107,,37.615669,127.008766,성북구,104.0,5.473684210526316
ST-3044,서울특별시 성동구 성동구 광나루로 310,,37.54808,127.064613,성동구,1425.0,75.0
ST-3043,서울특별시 성동구 동일로 169,,37.547535,127.066826,성동구,2308.0,121.47368421052632
ST-3042,서울특별시 성동구 광나루로 144 더 스페이스 타워,,37.551403,127.046364,성동구,1030.0,54.21052631578947
ST-3041,서울특별시 영등포구 대림동 647-2,,37.503006,126.893829,영등포구,354.0,15.391304347826088
ST-3040,서울특별시 영등포구 대림동 646-1,,37.502083,126.893188,영등포구,1426.0,62.0
ST-304,서울특별시 영등포구 도림동 159-70,동아에코빌입구,37.509476,126.8993,영등포구,1133.0,49.26086956521739
ST-3039,서울특별시 성북구 화랑로32길 146-20 문화재청의릉지구관리소,,37.602898,127.058479,성북구,222.0,11.68421052631579
ST-3038,서울특별시 성북구 화랑로32길 146-37 한국예술종합학교,,37.606651,127.056183,성북구,253.0,13.31578947368421
ST-3037,서울특별시 구로구 오류동 108-18,,37.48859,126.824783,구로구,268.0,12.761904761904763
ST-3036,서울특별시 중랑구 신내역로1길 85 신내우디안1단지,,37.617271,127.108543,중랑구,,
ST-3035,서울특별시 중랑구 양원역로 38 서울시북부병원 및 시립중랑노인전문요양원,,37.604057,127.107254,중랑구,,
ST-3034,서울특별시 서대문구 홍제동 47-35,,37.57988,126.952301,서대문구,,
ST-3033,서울특별시 서대문구 홍은동 387-61,,37.576756,126.928276,서대문구,492.0,22.363636363636363
ST-3032,서울특별시 금천구 독산동 871-45,,37.461395,126.890038,금천구,491.0,24.55
ST-3031,서울특별시 강서구 강서구 외발산동 276-9,,37.549263,126.816742,강서구,617.0,30.85
ST-3030,서울특별시 영등포구 양평동2가 33-80,,37.525566,126.885841,영등포구,922.0,40.08695652173913
ST-303,서울특별시 영등포구 신길동373-1,도림4거리,37.506573,126.901131,영등포구,1355.0,58.91304347826087
ST-3029,서울특별시 금천구 디지털로10길 9 현대시티아울렛 가산점,,37.477398,126.888779,금천구,1187.0,59.35
ST-3028,서울특별시 은평구 불광동 476-10,,37.627945,126.919769,은평구,137.0,5.956521739130435
ST-3027,서울특별시 서대문구 충정로 36 국민연금충정로사옥,,37.561848,126.964149,서대문구,174.0,7.909090909090909
ST-3026,서울특별시 도봉구 창동 808-3,,37.658989,127.049736,도봉구,835.0,41.75
ST-3025,서울특별시 중랑구 겸재로 240 행복오피스텔,,37.589737,127.094193,중랑구,,
ST-3024,서울특별시 중랑구 봉화산로 301,,37.609241,127.106209,중랑구,,
ST-3023,서울특별시 중랑구 망우동 253-18,,37.606552,127.107086,중랑구,,
ST-3022,서울특별시 마포구 서울시 마포구 도화동 1-402 경의선 숲길 커뮤니티센터,,37.541611,126.953758,마포구,,
ST-3021,서울특별시 마포구 신촌로 134,,37.556011,126.940346,마포구,222.0,10.571428571428571
ST-3020,서울특별시 마포구 서울서부지방법원등기국앞,,37.551849,126.954781,마포구,308.0,14.666666666666666
ST-302,서울특별시 영등포구 신길동263-76,도림신협 앞,37.503803,126.903419,영등포구,1218.0,52.95652173913044
ST-3019,서울특별시 마포구 서울 마포구 독막로 8,,37.547588,126.924644,마포구,578.0,27.523809523809526
ST-3018,서울특별시 마포구 대흥동 3-63,,37.554695,126.94577,마포구,,
ST-3017,서울특별시 마포구 서울 마포구 합정동 50-15,,37.545296,126.917648,마포구,1122.0,53.42857142857143
ST-3016,서울특별시 마포구 서울시 마포구 토정 나들목 진입로 입구 서울시 마포구 토정로 28길  대흥로 2길이 교차 하는 지점,,37.540794,126.939629,마포구,,
ST-3015,서울특별시 노원구 동일로 1331-2 구두수선대,,37.64806,127.062393,노원구,1788.0,94.10526315789474
ST-3014,서울특별시 노원구 미차이 중식당 바로 앞,,37.628212,127.070465,노원구,,
ST-3013,서울특별시 구로구 서울 구로구 구로동 496-128,,37.500965,126.88237,구로구,1343.0,63.95238095238095
ST-3012,서울특별시 광진구 구의동 623-1,,37.539192,127.098015,광진구,898.0,56.125
ST-3011,서울특별시 영등포구 당산동4가 93-3,,37.529152,126.894478,영등포구,1890.0,82.17391304347827
ST-3010,서울특별시 서초구 반포대로316옆 반포한강공원입구,,37.507496,127.000183,서초구,,
ST-301,서울특별시 영등포구 신길동3596,남서울아파트 14동앞,37.500649,126.909515,영등포구,,
ST-3009,서울특별시 서초구 서초구 동광로 몽마르뜨공원 입구,,37.492889,127.002647,서초구,193.0,9.19047619047619
ST-3008,서울특별시 마포구 마포구 염리동 160-68,,37.545685,126.94677,마포구,1155.0,55.0
ST-3007,서울특별시 중랑구 봉우재로 189,,37.594429,127.094032,중랑구,,
ST-3006,서울특별시 중랑구 망우로 467,,37.600643,127.10405,중랑구,,
ST-3005,서울특별시 송파구 방이동 88-13,,37.52597,127.11821,송파구,52.0,13.0
ST-3004,서울특별시 송파구 거여동 657-12,,37.484554,127.149193,송파구,403.0,28.785714285714285
ST-3003,서울특별시 성동구 성동구 아차산로 144,,37.543324,127.059715,성동구,1740.0,91.57894736842105
ST-3002,서울특별시 성동구 서울 성동구 성수일로 10. 서울숲 itct 지식산업센터 앞,,37.541275,127.048492,성동구,1878.0,98.84210526315789
ST-3001,서울특별시 도봉구 해등로 4길 355,,37.649193,127.046066,도봉구,,
ST-3000,서울특별시 노원구 공릉로 126(공릉동 747),,37.620991,127.078751,노원구,,
ST-300,서울특별시 영등포구 신길동4884,보라매역4번출구(순흥빌딩),37.499828,126.919945,영등포구,1192.0,51.82608695652174
ST-30,서울특별시 서대문구 연세로 3-5,30-16,37.555496,126.93634,서대문구,722.0,32.81818181818182
ST-3,서울특별시 마포구 동교로8길 58,444-12,37.549561,126.905754,마포구,,
ST-2999,서울특별시 금천구 가산디지털2로 98 IT캐슬,,37.476368,126.880836,금천구,782.0,39.1
ST-2998,서울특별시 금천구 독산동 1008-1,,37.46629,126.897385,금천구,,
ST-2997,서울특별시 구로구 서울 구로구 오류동 44-1,,37.494991,126.84185,구로구,530.0,25.238095238095237
ST-2996,서울특별시 관악구 서울 관악구 신림동 458,,37.488571,126.921387,관악구,1090.0,57.36842105263158
ST-2995,서울특별시 관악구 쑥고개로 111,,37.479092,126.949417,관악구,517.0,27.210526315789473
ST-2994,서울특별시 강서구 공항대로 509 우림보보카운티뷰오피스텔,,37.551884,126.863571,강서구,954.0,47.7
ST-2993,서울특별시 강서구 강서구 마곡동 798-17,,37.558235,126.82576,강서구,2616.0,130.8
ST-2992,서울특별시 강서구 화곡동 1013-3,,37.546619,126.836235,강서구,1129.0,56.45
ST-2991,서울특별시 송파구 송파대로 567 잠실주공아파트,,37.516335,127.093803,송파구,1682.0,120.14285714285714
ST-2990,서울특별시 서대문구 서대문구 연희동 150-11,,37.575401,126.93544,서대문구,178.0,8.090909090909092
ST-299,서울특별시 영등포구 신길동853,서울지방병무청 버스정류장,37.504494,126.921951,영등포구,681.0,29.608695652173914
ST-2989,서울특별시 송파구 거여동 657,,37.486889,127.141693,송파구,62.0,5.166666666666667
ST-2988,서울특별시 송파구 거여동 604-2,,37.486416,127.142059,송파구,605.0,43.214285714285715
ST-2987,서울특별시 송파구 중대로 24 올림픽훼밀리타운,,37.486336,127.113747,송파구,463.0,33.07142857142857
ST-2986,서울특별시 송파구 송파구 석촌동 302-1,,37.497932,127.096756,송파구,482.0,34.42857142857143
ST-2985,서울특별시 송파구 충민로 66 가든파이브라이프,,37.477097,127.123703,송파구,194.0,13.857142857142858
ST-2984,서울특별시 송파구 송파구 문정동 373,,37.483524,127.116837,송파구,760.0,54.285714285714285
ST-2983,서울특별시 마포구 서울시 마포구 아현동 645-14,,37.552353,126.951477,마포구,108.0,6.352941176470588
ST-2982,서울특별시 마포구 서울 마포구 성산동 601-8,,37.56897,126.907799,마포구,,
ST-2981,서울특별시 마포구 서울시 마포구 성암로 179,,37.576492,126.898674,마포구,873.0,41.57142857142857
ST-2980,서울특별시 마포구 만리재로 95 에스테반오피스텔,,37.54892,126.959518,마포구,325.0,15.476190476190476
ST-298,서울특별시 영등포구 신길동 249,우주마루아파트 201동 앞,37.507641,126.92308,영등포구,550.0,23.91304347826087
ST-2979,서울특별시 마포구 연남로 42 코오롱하늘채아파트,,37.563065,126.921494,마포구,2816.0,134.0952380952381
ST-2978,서울특별시 마포구 서울시 마포구 염리동 30-29,,37.551529,126.946693,마포구,655.0,31.19047619047619
ST-2977,서울특별시 마포구 서울 마포구 월드컵로42길 13,,37.578922,126.882164,마포구,868.0,41.333333333333336
ST-2976,서울특별시 마포구 공덕동 4-11,,37.550159,126.960526,마포구,400.0,19.047619047619047
ST-2975,서울특별시 마포구 마포구 창전동15-1,,37.549854,126.932037,마포구,1197.0,57.0
ST-2974,서울특별시 마포구 MBC본사와 디지털매직스페이스 건물 사이 횡단보도 2개 중간,,37.5812,126.88958,마포구,1698.0,80.85714285714286
ST-2973,서울특별시 송파구 송파구 문정동 502,,37.486324,127.115089,송파구,,
ST-2972,서울특별시 송파구 문정동 500,,37.486229,127.114761,송파구,1090.0,77.85714285714286
ST-2971,서울특별시 노원구 노원구 우이천로 102,,37.630005,127.044098,노원구,393.0,20.68421052631579
ST-2970,서울특별시 성북구 성북구 길음동 1261-535,,37.61208,127.02198,성북구,51.0,2.6842105263157894
ST-297,서울특별시 영등포구 여의동로 300-2 가로판매대50,,37.524349,126.936119,영등포구,987.0,42.91304347826087
ST-2969,서울특별시 중랑구 중랑구 용마산로 393,,37.586864,127.095322,중랑구,,
ST-2968,"서울특별시 도봉구 도봉구 해등로 4길, (도봉구 노해로 66길)",,37.649509,127.047226,도봉구,,
ST-2967,서울특별시 도봉구 노해로70길 19 주공19단지아파트,,37.65242,127.052292,도봉구,1062.0,53.1
ST-2966,서울특별시 강동구 상일동 34,,37.553028,127.180756,강동구,679.0,30.863636363636363
ST-2965,서울특별시 강서구 마곡동 748-4,,37.556763,126.818695,강서구,2657.0,132.85
ST-2964,서울특별시 금천구 서부샛길 606 대성디폴리스지식산업센터,,37.480175,126.876801,금천구,534.0,26.7
ST-2963,서울특별시 강남구 남부순환로 3104 SETEC,,37.495602,127.071945,강남구,,
ST-2962,서울특별시 서초구 남부순환로 2585 양재역,,37.485737,127.033157,서초구,572.0,26.0
ST-2961,서울특별시 양천구 신정동 330-5,,37.511742,126.873833,양천구,974.0,42.34782608695652
ST-2960,서울특별시 양천구 목동동로 50 목동신시가지아파트12단지,,37.514122,126.860405,양천구,2630.0,114.34782608695652
ST-296,서울특별시 영등포구 여의도동8-13,초원아파트 앞,37.531055,126.92421,영등포구,853.0,37.08695652173913
ST-2959,서울특별시 영등포구 대림로 154 기영빌딩,,37.494846,126.900291,영등포구,352.0,15.304347826086957
ST-2958,서울특별시 영등포구 양평동 493,,37.523842,126.881561,영등포구,1513.0,65.78260869565217
ST-2957,서울특별시 송파구 중대로 24 올림픽훼밀리타운,,37.48996,127.111961,송파구,533.0,38.07142857142857
ST-2956,서울특별시 은평구 응암동 159-3,,37.599545,126.926537,은평구,427.0,18.565217391304348
ST-2955,서울특별시 노원구 노원로 62 공릉해링턴플레이스,,37.62812,127.085487,노원구,144.0,7.578947368421052
ST-2954,서울특별시 노원구 한글비석로54길 92 상계주공13단지아파트,,37.66674,127.063889,노원구,249.0,13.105263157894736
ST-2953,서울특별시 중랑구 신내동 574-1,,37.604462,127.097412,중랑구,,
ST-2952,서울특별시 중랑구 신내동 574-1,,37.604286,127.097366,중랑구,,
ST-2951,서울특별시 양천구 가로공원로 168 화곡제7동치안센터,,37.53661,126.834663,양천구,,
ST-2950,서울특별시 양천구 가로공원로 162,,37.53651,126.833946,양천구,,
ST-295,서울특별시 영등포구 당산로 222 당산디오빌,,37.533421,126.902237,영등포구,4403.0,191.43478260869566
ST-2949,서울특별시 구로구 구로구 구로동 50-7,,37.493828,126.839073,구로구,141.0,6.714285714285714
ST-2948,서울특별시 관악구 남부순환로 2054,,37.476398,126.976837,관악구,596.0,31.36842105263158
ST-2947,서울특별시 강서구 방화동 886-15,,37.561546,126.807083,강서구,391.0,19.55
ST-2946,서울특별시 강서구 염창동 284-46,,37.550858,126.872337,강서구,644.0,32.2
ST-2945,서울특별시 강서구 마곡동 800-23,,37.557915,126.832977,강서구,2272.0,113.6
ST-2944,서울특별시 강서구 양천로55길 55 강서한강자이,,37.567245,126.850388,강서구,1226.0,61.3
ST-2943,서울특별시 강서구 가양동,,37.569027,126.839882,강서구,2135.0,106.75
ST-2942,서울특별시 중랑구 중랑구 신내역로 111,,37.612724,127.11306,중랑구,,
ST-2941,서울특별시 송파구 거여동 217-14,,37.494591,127.151093,송파구,340.0,24.285714285714285
ST-2940,서울특별시 송파구 양재대로 1218 올림픽선수기자촌아파트,,37.518692,127.139061,송파구,379.0,27.071428571428573
ST-294,서울특별시 영등포구 당산동4가 35-24,삼성생명 당산사옥 앞,37.528263,126.896629,영등포구,2810.0,122.17391304347827
ST-2939,서울특별시 송파구 송파구 거여동 657-12,,37.487148,127.153282,송파구,64.0,8.0
ST-2938,서울특별시 송파구 송파구 거여동 산60-1,,37.488686,127.152267,송파구,151.0,10.785714285714286
ST-2937,서울특별시 송파구 거여동 산23-34,,37.495358,127.139473,송파구,87.0,6.214285714285714
ST-2936,서울특별시 송파구 송파구 마천동 325-29,,37.492222,127.156593,송파구,131.0,9.357142857142858
ST-2935,서울특별시 성북구 고려대로 104-1,,37.58625,127.030952,성북구,546.0,28.736842105263158
ST-2934,서울특별시 서초구 신반포로 56-7 세화고.세화여고.세화여중,,37.502094,126.99147,서초구,245.0,11.136363636363637
ST-2933,서울특별시 동대문구 휘경동 267-10,,37.589451,127.059563,동대문구,,
ST-2932,서울특별시 금천구 시흥대로73길 70 금천구청종합청사,,37.457035,126.894325,금천구,869.0,43.45
ST-2931,서울특별시 금천구 금천구 한내로 69-44,,37.459366,126.88678,금천구,212.0,10.6
ST-2930,서울특별시 강북구 휘경동 267-4,,37.634937,127.017525,강북구,,
ST-293,서울특별시 영등포구 영등포동8가 82-4,영등포삼환아파트 앞,37.530079,126.905708,영등포구,1776.0,77.21739130434783
ST-2929,서울특별시 강동구 강동구 강동대로 303,,37.519604,127.13871,강동구,,
ST-2928,서울특별시 강동구 방이동 89-29,,37.527229,127.136353,강동구,,
ST-2927,서울특별시 강남구 개포동 181-1,,37.486076,127.059219,강남구,254.0,13.368421052631579
ST-2926,서울특별시 강남구 개포동 156-17,,37.486706,127.060501,강남구,99.0,5.2105263157894735
ST-2925,서울특별시 강남구 개포동 175-3,,37.486423,127.059319,강남구,242.0,12.736842105263158
ST-2924,서울특별시 용산구 한강로2가 220-4,,37.527035,126.966179,용산구,1282.0,58.27272727272727
ST-2923,서울특별시 종로구 새문안로 39-1 동서한의원,,37.568836,126.969551,종로구,,
ST-2922,서울특별시 중랑구 봉우재로41길 6 청운명가프라임,,37.593544,127.08979,중랑구,,
ST-2921,서울특별시 중랑구 중랑구 망우로 325(상봉동),,37.597809,127.088448,중랑구,,
ST-2920,서울특별시 영등포구 영등포구 양평동5가 51-1,,37.539726,126.890366,영등포구,1763.0,76.65217391304348
ST-292,서울특별시 영등포구 양평동3가 48-1,이앤씨드림타워 앞,37.527084,126.89138,영등포구,3289.0,143.0
ST-2919,서울특별시 송파구 송파구 풍납동 403-3,,37.529148,127.116058,송파구,,
ST-2918,서울특별시 송파구 백제고분로 236-2 구두수선대,,37.502914,127.092537,송파구,,
ST-2917,서울특별시 송파구 거여동 657,,37.482636,127.139923,송파구,224.0,16.0
ST-2916,서울특별시 송파구 잠실동 349,,37.501171,127.085167,송파구,362.0,25.857142857142858
ST-2915,서울특별시 송파구 송파구 오금동 166,,37.498272,127.134865,송파구,488.0,34.857142857142854
ST-2914,서울특별시 노원구 노원구 동일로243길 57,,37.678513,127.051743,노원구,760.0,40.0
ST-2913,서울특별시 금천구 독산로 179 독산2동주민센터,,37.463223,126.903572,금천구,185.0,9.25
ST-2912,서울특별시 금천구 시흥동 산 138-3,,37.462723,126.907219,금천구,155.0,8.157894736842104
ST-2911,"서울특별시 금천구 시흥동 808-5,6",,37.458382,126.908073,금천구,26.0,1.8571428571428572
ST-2910,서울특별시 금천구 독산로36길 14,,37.458942,126.90593,금천구,202.0,10.1
ST-291,서울특별시 영등포구 신길동 215-28,신길선원가와인아파트 앞,37.510933,126.910225,영등포구,864.0,37.56521739130435
ST-2909,서울특별시 강동구 강동구 강일동 736,,37.557072,127.17514,강동구,228.0,10.363636363636363
ST-2908,서울특별시 강동구 강동구 강일동 469-9,,37.557404,127.176537,강동구,564.0,25.636363636363637
ST-2907,서울특별시 강남구 자곡로3길 21,,37.470928,127.089706,강남구,601.0,31.63157894736842
ST-2906,서울특별시 중랑구 용마산로125길 50 벽산아파트,,37.603043,127.100502,중랑구,,
ST-2905,서울특별시 마포구 망원로 1-1 토목과 자재창고,,37.555576,126.896889,마포구,7664.0,364.95238095238096
ST-2904,서울특별시 중랑구 동일로 540,,37.579845,127.08242,중랑구,,
ST-2903,서울특별시 중구 중구 청계천로 400,,37.571621,127.022041,중구,1738.0,79.0
ST-2902,서울특별시 영등포구 영등포구 도신로(신길우성4차 401동 앞),,37.512833,126.917633,영등포구,1491.0,64.82608695652173
ST-2901,서울특별시 영등포구 영등포구 가마산로79길 19,,37.506012,126.915886,영등포구,808.0,35.130434782608695
ST-2900,서울특별시 영등포구 영등포구 여의나루로 76,,37.524105,126.928108,영등포구,,
ST-290,서울특별시 영등포구 도림동 255-2,,37.505016,126.898537,영등포구,839.0,36.47826086956522
ST-29,서울특별시 마포구 백범로 10,31-213,37.55352,126.936951,마포구,135.0,6.428571428571429
ST-2899,서울특별시 영등포구 영등포구 여의나루로 76,,37.523479,126.927116,영등포구,843.0,36.65217391304348
ST-2898,서울특별시 성북구 성북구 하월곡동 96-78,,37.606239,127.03466,성북구,936.0,49.26315789473684
ST-2897,서울특별시 서대문구 남가좌동 384-3,,37.575043,126.917366,서대문구,886.0,40.27272727272727
ST-2896,서울특별시 노원구 동일로 1063,,37.625019,127.072952,노원구,1413.0,74.36842105263158
ST-2895,서울특별시 금천구 독산동 산167-9,,37.462399,126.891754,금천구,428.0,21.4
ST-2894,서울특별시 금천구 독산동 산167-9,,37.462223,126.891815,금천구,367.0,18.35
ST-2893,서울특별시 금천구 금하로29길 36,,37.45192,126.913757,금천구,308.0,15.4
ST-2892,서울특별시 구로구 구로구 구로동 50-7,,37.501263,126.891182,구로구,1845.0,87.85714285714286
ST-2891,서울특별시 광진구 자양로3가길 28,,37.528793,127.084633,광진구,1461.0,91.3125
ST-2890,서울특별시 강서구 마곡동 222-32,,37.573341,126.823318,강서구,,
ST-289,서울특별시 영등포구 문래동3가 55-12,문래역 4번출구 앞,37.518738,126.895576,영등포구,3448.0,149.91304347826087
ST-2889,서울특별시 강서구 마곡동 767-3,,37.563541,126.824554,강서구,,
ST-2888,서울특별시 강서구 내발산동 657-2,,37.555454,126.837517,강서구,1984.0,99.2
ST-2887,서울특별시 강서구 곰달래로37길 13 화곡2동주민센터,,37.531822,126.854622,강서구,932.0,46.6
ST-2886,서울특별시 강서구 마곡동 799,,37.559311,126.827438,강서구,1439.0,71.95
ST-2885,서울특별시 강서구 마곡동 799,,37.55933,126.827179,강서구,,
ST-2884,서울특별시 강서구 강서구 마곡동 799,,37.559059,126.827049,강서구,1458.0,72.9
ST-2883,서울특별시 강서구 방화동 849-2,,37.571087,126.807541,강서구,1356.0,67.8
ST-2882,서울특별시 강남구 봉은사로 326,,37.509785,127.04277,강남구,222.0,11.68421052631579
ST-2881,서울특별시 중랑구 중랑구 송림길 114,,37.605488,127.104637,중랑구,,
ST-2880,서울특별시 용산구 용산구 동빙고동 315,,37.525295,126.995834,용산구,282.0,12.818181818181818
ST-288,서울특별시 영등포구 영등포동7가 58-2,유스호스텔 앞,37.525852,126.903282,영등포구,1430.0,62.17391304347826
ST-2879,서울특별시 양천구 양천구 신정동 1279,,37.522141,126.878059,양천구,1500.0,65.21739130434783
ST-2878,서울특별시 송파구 송파구 가락동 166-1,,37.498062,127.134613,송파구,498.0,35.57142857142857
ST-2877,서울특별시 송파구 송파구 오금동 2,,37.510727,127.130402,송파구,390.0,27.857142857142858
ST-2876,서울특별시 송파구 송파구 방이동 40-6,,37.517078,127.112328,송파구,3094.0,221.0
ST-2875,서울특별시 서초구 신원동 319-1,,37.452,127.053917,서초구,186.0,8.454545454545455
ST-2874,서울특별시 마포구 마포구 합정동454-23,,37.550068,126.9048,마포구,703.0,33.476190476190474
ST-2873,서울특별시 관악구 남부순환로1483,,37.482048,126.915245,관악구,1059.0,55.73684210526316
ST-2872,서울특별시 관악구 남부순환로1921,,37.477528,126.962769,관악구,328.0,17.263157894736842
ST-2871,서울특별시 강서구 강서구 마곡동 798,,37.559746,126.824387,강서구,4789.0,239.45
ST-2870,서울특별시 강남구 논현로 337,,37.495243,127.039375,강남구,577.0,30.36842105263158
ST-287,서울특별시 영등포구 당산동4가 96-2,제2구민체육센타 앞,37.526386,126.902756,영등포구,2740.0,119.1304347826087
ST-2869,서울특별시 강남구 광평로10길 15,,37.482761,127.080421,강남구,355.0,18.68421052631579
ST-2868,서울특별시 강남구 자곡로 174-14,,37.472679,127.10376,강남구,372.0,19.57894736842105
ST-2867,서울특별시 강남구 강남구 일원로 7,,37.493706,127.079994,강남구,686.0,36.10526315789474
ST-2866,서울특별시 용산구 원효로4가 113-54,,37.532005,126.955559,용산구,521.0,23.681818181818183
ST-2865,서울특별시 광진구 자양번영로 38,,37.532936,127.075806,광진구,2490.0,155.625
ST-2864,서울특별시 성동구 용산 보관소,,0.0,0.0,성동구,,
ST-2863,서울특별시 성동구 테스트 대여소,,37.57164,127.03566,성동구,,
ST-2862,서울특별시 강동구 강동구 아리수로50길 50,,37.558857,127.151489,강동구,497.0,22.59090909090909
ST-2861,서울특별시 노원구 공릉동 656-6,,37.619656,127.081467,노원구,575.0,30.263157894736842
ST-2860,서울특별시 중랑구 중랑구 망우로55길 11-10(상봉동),,37.600254,127.091713,중랑구,,
